index,Date Last Researched,Country,Project Name,Phase Name,Project Name in Local Language / Script,Other Name(s),Capacity (MW),Installation Type,Status,Start year,Retired year,Operator,Operator Name in Local Language / Script,Owner,Owner Name in Local Language / Script,Latitude,Longitude,Location accuracy,City,"Local area (taluk, county)","Major area (prefecture, district)",State/Province,Subregion,Region,GEM location ID,GEM phase ID,Other IDs (location),Other IDs (unit/phase),Wiki URL,geometry,Wind Speed,Wind Class,EU27
92,2022-11-03,Kenya,Malindi Offshore wind farm,,,Malinidi Offshore,50.0,offshore mount unknown,cancelled,,,,,VR Holding AB,,-3.5102,39.9593,approximate,Malinidi,Kilifi,,,Sub-Saharan Africa,Africa,L900132,G900172,,,https://gem.wiki/Malindi_Offshore_wind_farm,POINT (39.9593 -3.5102),7.105001926422119,III,False
133,2022-09-15,Morocco,Morocco-UK wind farm,,,,3500.0,offshore mount unknown,pre-construction,2027.0,,Xlinks; Octopus Energy,,Xlinks;Octopus Energy,,28.5274,-10.0316,approximate,,,,,Northern Africa,Africa,L916623,G920661,,,https://gem.wiki/Morocco-UK_wind_farm,POINT (-10.0316 28.5274),10.72794246673584,I,False
244,2022-11-06,Tanzania,Vr Holding Tanzania wind farm,,,"VR Holding wind farm, Sh253bn mega-project, Sh253bn wind farm",50.0,offshore mount unknown,pre-construction,,,VR Holding AB,,VR Holding AB,,-7.2045,39.5397,exact,,,,,Sub-Saharan Africa,Africa,L900059,G900078,,,https://gem.wiki/Vr_Holding_Tanzania_wind_farm,POINT (39.5397 -7.2045),5.756715774536133,III,False
281,2021-12-20,Bangladesh,Chittagong - Givent DLC Green Energy Offshore wind farm,,,,400.0,offshore mount unknown,cancelled,,,,,Givent DLC Green Energy Finance Limited,,22.101,91.801,approximate,,,,,Southern Asia,Asia,L901156,G901349,,,https://gem.wiki/Chittagong_-_Givent_DLC_Green_Energy_Offshore_wind_farm,POINT (91.801 22.101),6.148464202880859,III,False
346,2022-09-26,Japan,Ajigasawa Offshore wind farm,,鰺ヶ沢洋上風力発電事業,"Ajigasawa Offshore Wind Power Generation Project, Ajigasawa wind farm",600.0,offshore mount unknown,pre-construction,2026.0,,,,Influx INC,,40.8473,140.1393,approximate,Ajigasawa,,Aomori Prefecture,,Eastern Asia,Asia,L901172,G901365,,,https://gem.wiki/Ajigasawa_Offshore_wind_farm,POINT (140.1393 40.8473),8.696763038635254,I,False
347,2022-09-26,Japan,Aker offshore wind farm,,,"Progression Energy floating wind farm, Progression Energy Floating Project",800.0,offshore floating,announced,,,,,Aker Offshore Wind CO [25%]; Mainstream Renewable Power [25%]; Progression Energy,,35.9926,135.8319,approximate,,,,,Eastern Asia,Asia,L916684,G920730,,,https://gem.wiki/Aker_offshore_wind_farm,POINT (135.8319 35.9926),7.29789924621582,III,False
349,2022-09-26,Japan,Akita Noshiro Offshore wind farm,,秋田洋上風力発電所,Akita Noshiro offshore wind power station,139.0,offshore hard mount,construction,2022.0,,Akita Offshore Wind CORP (AOW),秋田洋上風力発電株式会社,Marubeni CORP; Obayashi CORP; Tohoku Electric Power CO INC; Cosmo Eco Power CO LTD; Kansai Electric Power CO INC (KEPCO); Chubu Electric Power CO INC; Akita Bank LTD; Ohmori CO LTD; Sawakigumi CORP; Kyowa Oil CO LTD; Kato Kensetsu CO LTD; Kanpu CO LTD; Sankyo CO LTD,丸紅株式会社; 株式会社大林組; 東北電力株式会社; コスモエコパワー株式会社; 関西電力株式会社; 中部電力株式会社; 株式会社秋田銀行; 大森建設株式会社; 株式会社沢木組; 協和石油株式会社; 株式会社加藤建設; 株式会社寒風; 三共株式会,40.2201,139.9603,approximate,,Noshiro Port,Akita Prefecture,,Eastern Asia,Asia,L900716,G900819,,,https://gem.wiki/Akita_Noshiro_Offshore_wind_farm,POINT (139.9603 40.2201),8.020401000976562,II,False
350,2022-09-26,Japan,Akita Port (JWD) Offshore wind farm,,秋田洋上風力発電事業,"Akita Offshore Wind Power Generation Project, Akita Offshore offshore wind farm",722.0,offshore mount unknown,pre-construction,2026.0,,,,Japan Wind Development CO LTD (JWD); Eurus Energy Holdings CORP; Ørsted A/S,日本風力開発株式会社,40.1438,139.9369,approximate,Noshiro City,,Akita Prefecture,,Eastern Asia,Asia,L901192,G901387,,,https://gem.wiki/Akita_Port_(JWD)_Offshore_wind_farm,POINT (139.9369 40.1438),7.8377766609191895,II,False
351,2022-09-26,Japan,Akita Port (Marubeni) Offshore wind farm,,たち秋田洋上風力発電,Akita Port,55.0,offshore hard mount,construction,2022.0,,Akita Offshore Wind CORP (AOW),秋田洋上風力発電株式会社,Marubeni CORP; Obayashi CORP; Tohoku Electric Power CO INC; Cosmo Eco Power CO LTD; Kansai Electric Power CO INC (KEPCO); Chubu Electric Power CO INC; Akita Bank LTD; Ohmori CO LTD; Sawakigumi CORP; Kyowa Oil CO LTD; Kato Kensetsu CO LTD; Kanpu CO LTD; Sankyo CO LTD,丸紅株式会社; 株式会社大林組; 東北電力株式会社; コスモエコパワー株式会社; 関西電力株式会社; 中部電力株式会社; 株式会社秋田銀行; 大森建設株式会社; 株式会社沢木組; 協和石油株式会社; 株式会社加藤建設; 株式会社寒風; 三共株式会社,39.7593,140.0421,approximate,,Akita Port,Akita Prefecture,,Eastern Asia,Asia,L900714,G900817,,,https://gem.wiki/Akita_Port_(Marubeni)_Offshore_wind_farm,POINT (140.0421 39.7593),7.369037628173828,III,False
352,2022-09-26,Japan,Akita Port (Tohoku) offshore wind farm,,秋田港および能代港洋上風力,Akita Port and Noshiro Port Offshore wind power,140.0,offshore mount unknown,pre-construction,2022.0,,Tohoku Natural Energy CO LTD; Akita Offshore Wind Power CO LTD,東北自然エネルギー株式会社; 秋田洋上風力発電株式会社,Tohoku Natural Energy CO LTD,東北自然エネルギー,40.3158,139.8197,approximate,Noshiro,,Akita Prefecture,,Eastern Asia,Asia,L916685,G920731,,,https://gem.wiki/Akita_Port_(Tohoku)_offshore_wind_farm,POINT (139.8197 40.3158),8.103704452514648,II,False
354,2022-09-26,Japan,Aomori (South Side) Offshore wind farm,,青森西北沖（南側）洋上風力発電,"Aomori (south side) Offshore wind power generation, Offshore wind power generation business off the northwest coast of Aomori (south side) Offshore wind power generation, Aomori Northwest (South) Offshore wind farm",600.0,offshore hard mount,pre-construction,,,,,Cosmo Eco Power CO LTD; Hitachi LTD; Iberdrola,,40.8435,140.2366,approximate,Tsugaru City,,Aomori Prefecture,,Eastern Asia,Asia,L901433,G901686,,,https://gem.wiki/Aomori_(South_Side)_Offshore_wind_farm,POINT (140.2366 40.8435),8.097254753112793,II,False
355,2022-09-26,Japan,Aomori Offshore wind farm,,青森沖洋上風力発電事業,"Aomori wind power generation, Off The Coast Of Aomori",1300.0,offshore mount unknown,pre-construction,,,,,,,40.8107,140.2259,approximate,Tsugaru City,,Aomori Prefecture,,Eastern Asia,Asia,L901308,G901531,,,https://gem.wiki/Aomori_Offshore_wind_farm,POINT (140.2259 40.8107),7.796443462371826,II,False
363,2022-09-26,Japan,Awara Offshore wind farm,,福井県あわら洋上風力発電,"Awara Offshore Wind Power, J-Power-Awara wind farm, Fukui Prefecture Awara Offshore Wind Power Generation Business",352.0,offshore mount unknown,shelved,,,,,Electric Power Development CO LTD (J-POWER),電源開発株式会社,36.3023,136.1965,approximate,Awara City,,Fukui Prefecture,,Eastern Asia,Asia,L901117,G901303,,,https://gem.wiki/Awara_Offshore_wind_farm,POINT (136.1965 36.3023),7.633792400360107,II,False
369,2022-09-26,Japan,Chiba - Choshi - ORIX Offshore wind farm,,,,200.0,offshore hard mount,cancelled,,,,,ORIX CORP,オリックス株式会社,35.6196,140.6791,approximate,Choshi,,Chiba Prefecture,,Eastern Asia,Asia,L901241,G901443,,,https://gem.wiki/Chiba_-_Choshi_-_ORIX_Offshore_wind_farm,POINT (140.6791 35.6196),8.091358184814453,II,False
370,2022-09-26,Japan,Chiba - Choshi - Shinzen Energy/Npi Offshore wind farm,,,,600.0,offshore mount unknown,shelved,,,,,Northland Power INC [50%]; Shizen Energy INC; Tokyo Gas CO LTD [50%],,35.5867,140.6791,approximate,,,Chiba Prefecture,,Eastern Asia,Asia,L901239,G901441,,,https://gem.wiki/Chiba_-_Choshi_-_Shinzen_Energy/Npi_Offshore_wind_farm,POINT (140.6791 35.5867),8.144956588745117,II,False
371,2022-02-17,Japan,Chiba TEPCO Offshore wind farm,1,,Choshi Offshore Wind Farm,370.0,offshore mount unknown,cancelled,,,,,"Ørsted A/S; TEPCO Renewable Power Co., Ltd.",,35.7593,140.9141,approximate,Choshi,,Chiba Prefecture,,Eastern Asia,Asia,L901243,G901445,,,https://gem.wiki/Chiba_TEPCO_Offshore_wind_farm,POINT (140.9141 35.7593),8.032050132751465,II,False
372,2022-02-17,Japan,Chiba TEPCO Offshore wind farm,2,,Choshi Offshore Wind Farm,2630.0,offshore mount unknown,cancelled,,,,,Tokyo Electric Power Company Holdings INC (TEPCO),,35.6401,140.7401,approximate,Choshi,,Chiba,,Eastern Asia,Asia,L901243,G901512,,,https://gem.wiki/Chiba_TEPCO_Offshore_wind_farm,POINT (140.7401 35.6401),8.074050903320312,II,False
376,2022-09-26,Japan,Choshi City offshore wind farm,,,Choshi City,350.0,offshore mount unknown,announced,,,,,,,35.6268,140.7924,approximate,Choshi,,Chiba Prefecture,,Eastern Asia,Asia,L916688,G920735,,,https://gem.wiki/Choshi_City_offshore_wind_farm,POINT (140.7924 35.6268),8.141366958618164,II,False
377,2022-09-26,Japan,Choshi Offshore wind farm,,,Choshi - Mitsubishi and C-Tech Offshore wind farm,391.0,offshore mount unknown,pre-construction,2028.0,,,,Mitsubishi CORP (MC); Chubu Electric Power CO INC,,35.6607,140.8943,approximate,Choshi,,Chiba Prefecture,,Eastern Asia,Asia,L900872,G900994,,,https://gem.wiki/Choshi_Offshore_wind_farm,POINT (140.8943 35.6607),8.130793571472168,II,False
386,2022-09-26,Japan,Enshunada Offshore wind farm,,パシフィコ・エナジー遠州灘洋上風力発電事業,Pacifico Energy Enshunada Offshore Wind Power Generation,500.0,offshore hard mount,pre-construction,2027.0,,,,Pacifico Energy CO LTD; SSE Renewables,,34.5859,138.1001,approximate,,,Shizuoka Prefecture,,Eastern Asia,Asia,L901247,G901451,,,https://gem.wiki/Enshunada_Offshore_wind_farm,POINT (138.1001 34.5859),8.288973808288574,II,False
394,2022-09-26,Japan,Fukiagehama Offshore wind farm,,吹上浜沖洋上風力発電,Fukiagehama (chikikushikino City - Minamisatsuma City),969.0,offshore floating,shelved,,,,,Influx INC,INFLUX次世代電力環境資源洋上風力発電株式会社,31.6118,130.1849,approximate,Ichikikushikino City,,Kagoshima Prefecture,,Eastern Asia,Asia,L901170,G901363,,,https://gem.wiki/Fukiagehama_Offshore_wind_farm,POINT (130.1849 31.6118),7.1293416023254395,III,False
395,2022-09-26,Japan,Fukui Offshore wind farm,,福井洋上風力発電,Fukui offshore wind power generation,350.0,offshore mount unknown,pre-construction,2028.0,,,,Vena Energy,日本風力エネルギー株式会社,36.279,136.2072,approximate,Awara City,,Fukui Prefecture,,Eastern Asia,Asia,L901318,G901544,,,https://gem.wiki/Fukui_Offshore_wind_farm,POINT (136.2072 36.279),7.298625469207764,III,False
400,2022-09-26,Japan,Goto City (Chubu Electric Power) Offshore Floating wind farm,1,五島市沖洋上風力発電,"Goto Sakiyama Oki Oki Huangdao, Goto City Offshore wind power project",17.0,offshore floating,construction,,,,,ENEOS CORP; Osaka Gas; Kansai Electric Power Company INC (KEPCO); INPEX CORP; Chubu Electric Power CO INC; TODA CORP,,32.6348,128.9913,approximate,Goto City,,Nagasaki Prefecture,,Eastern Asia,Asia,L901101,G901282,,,https://gem.wiki/Goto_City_(Chubu_Electric_Power)_Offshore_Floating_wind_farm,POINT (128.9913 32.6348),7.648090362548828,II,False
401,2022-09-26,Japan,Goto City (Chubu Electric Power) Offshore Floating wind farm,2,五島市沖洋上風力発電,"Goto Sakiyama Oki Oki Huangdao, Goto City Offshore wind power project",17.0,offshore floating,construction,,,,,Chubu Electric Power CO INC; ENEOS CORP; INPEX CORP; Kansai Electric Power CO INC (KEPCO); Osaka Gas; TODA CORP,中部電力株式会社; 及びENEOS株式会社; 国際石油開発帝石株式会社; 関西電力株式会社; 大阪ガス株式会社(大阪ガス); 戸田建設株式会社,32.6644,128.9355,approximate,Goto City,,Nagasaki Prefecture,,Eastern Asia,Asia,L901101,G901283,,,https://gem.wiki/Goto_City_(Chubu_Electric_Power)_Offshore_Floating_wind_farm,POINT (128.9355 32.6644),7.565863132476807,II,False
411,2022-09-26,Japan,Happou Noshiro (JERA) offshore wind farm,,八峰町及び能代市沖における洋上風力発電事業,"Offshore wind power generation project off the coast of Happo Town and Noshiro City, Happo Noshiro Offsh",356.0,offshore mount unknown,pre-construction,,,,,JERA CO INC,株式会社JERA,40.3684,139.9719,approximate,Noshiro City,,Akita Prefecture,,Eastern Asia,Asia,L916695,G920745,,,https://gem.wiki/Happou_Noshiro_(JERA)_offshore_wind_farm,POINT (139.9719 40.3684),7.138370990753174,III,False
412,2022-09-26,Japan,Happou Noshiro (JRE) Offshore wind farm,,,Happou Noshiro Offshore wind power project,360.0,offshore mount unknown,pre-construction,2028.0,,,,Japan Renewable Energy CORP (JRE); ENEOS CORP; Tohoku Electric Power CO INC,ジャパン・リニューアブル・エナジー株式会社; ENEOS株式会社; 東北電力株式会社,40.2636,139.5533,approximate,,,Akita Prefecture,,Eastern Asia,Asia,L901185,G901380,,,https://gem.wiki/Happou_Noshiro_(JRE)_Offshore_wind_farm,POINT (139.5533 40.2636),8.198934555053711,II,False
413,2022-09-26,Japan,Happou Noshiro (RWE) offshore wind farm,,秋田県八峰町及び能代市沖洋上ウィンドファーム事業,,360.0,offshore mount unknown,pre-construction,,,,,RWE Renewables Japan GK; Kyuden Mirai Energy CO LTD,RWE Renewables Japan合同会社;九電みらいエナジー株式会社,40.352,139.9527,approximate,Happo,,Akita Prefecture,,Eastern Asia,Asia,L916696,G920746,,,https://gem.wiki/Happou_Noshiro_(RWE)_offshore_wind_farm,POINT (139.9527 40.352),7.427230358123779,III,False
414,2022-09-26,Japan,Happou Noshiro (TEPCO) Offshore wind farm,,秋田県八峰町及び能代市沖洋上風力発電,"Happo Town, Akita Prefecture, Hoshiro City Offshore Wind Power Generation, Happo Town, Akita Prefecture, Hoshiro City Offshore wind farm",396.0,offshore mount unknown,pre-construction,,,,,Tokyo Electric Power Company Holdings INC (TEPCO),東京電力リニューアブルパワー株式会社,40.3347,140.0107,approximate,Happo,,Akita Prefecture,,Eastern Asia,Asia,L901287,G901503,,,https://gem.wiki/Happou_Noshiro_(TEPCO)_Offshore_wind_farm,POINT (140.0107 40.3347),6.853302478790283,III,False
415,2022-09-26,Japan,Happou Noshiro (Tohoku Electric Power) Offshore wind farm,,,Happou Noshiro Offshore Wind,155.0,offshore mount unknown,pre-construction,2024.0,,,,Tohoku Electric Power CO INC; ENEOS CORP; Japan Renewable Energy CORP (JRE),ジャパン・リニューアブル・エナジー株式会社; 東北電力株式会社; ENEOS株式会社,40.2067,139.9488,approximate,Noshiro City,,Akita Prefecture,,Eastern Asia,Asia,L901294,G901511,,,https://gem.wiki/Happou_Noshiro_(Tohoku_Electric_Power)_Offshore_wind_farm,POINT (139.9488 40.2067),8.009870529174805,II,False
422,2022-09-26,Japan,Hirado City - Madara-Shima Offshore wind farm,,,"Hirado City - Madara-Shima offshore project, Hirado City wind farm, Madoshima",618.0,offshore mount unknown,shelved,,,,,Influx INC,,33.5253,129.638,approximate,Hirado City,,Nagasaki Prefecture,,Eastern Asia,Asia,L901396,G901642,,,https://gem.wiki/Hirado_City_-_Madara-Shima_Offshore_wind_farm,POINT (129.638 33.5253),7.50131368637085,II,False
426,2022-09-26,Japan,Hirono Offshore wind farm,,岩手県洋野町沖洋上風力発電,,200.0,offshore floating,pre-construction,,,,,,,40.4016,141.7488,approximate,Hirono,,Iwate Prefecture,,Eastern Asia,Asia,L901432,G901685,,,https://gem.wiki/Hirono_Offshore_wind_farm,POINT (141.7488 40.4016),7.38129997253418,III,False
427,2022-09-26,Japan,Hiyama Area Offshore wind farm,,"檜山エリア洋上風力発電事業 Hiyama area OWF, 檜山エリア洋上風力発電事業",Hiyama Area Offshore Project,722.0,offshore mount unknown,shelved,,,,,Electric Power Development CO LTD (J-POWER),電源開発株式会社,41.7427,140.0182,approximate,Yakumo,Futami,Hokkadio Prefecture,,Eastern Asia,Asia,L901120,G901306,,,https://gem.wiki/Hiyama_Area_Offshore_wind_farm,POINT (140.0182 41.7427),8.37813949584961,II,False
435,2022-09-26,Japan,Hokkaido Ishikari Bay Offshore wind farm,,北海道石狩湾洋上風力発電事業,Hokkaido Ishikari Bay Offshore Wind Power Generation,1000.0,offshore mount unknown,pre-construction,,,,,Marubeni CORP,丸紅株式会社,43.2622,141.2153,approximate,Ishikari City,,Hokkaido Prefecture,,Eastern Asia,Asia,L901229,G901431,,,https://gem.wiki/Hokkaido_Ishikari_Bay_Offshore_wind_farm,POINT (141.2153 43.2622),8.172628402709961,II,False
439,2022-09-26,Japan,Iberdrola - Gig- Ideol floating wind farm,,,Iberdrola / GIG / Ideol (TBA) Floating Wind Farm,1400.0,offshore floating,cancelled,,,,,Iberdrola Renewables Japan; BW Ideol; Green Investment Group (GIG),,32.5792,129.0406,approximate,,Fukue Island,Nagasaki Prefecture,,Eastern Asia,Asia,L916697,G920747,,,https://gem.wiki/Iberdrola_-_Gig-_Ideol_floating_wind_farm,POINT (129.0406 32.5792),7.629713535308838,II,False
440,2022-09-26,Japan,Iberdrola/GIG Floating wind farm,,,,700.0,offshore floating,announced,,,,,Iberdrola Renewables Japan; Green Investment Group (GIG),,32.5993,129.151,approximate,,,Fukue Island,,Eastern Asia,Asia,L901166,G901359,,,https://gem.wiki/Iberdrola/GIG_Floating_wind_farm,POINT (129.151 32.5993),7.521300792694092,II,False
451,2022-09-26,Japan,Ishikari Bay - IBOWPG Offshore wind farm,,石狩・厚田洋上風力発電事業,Ishikari-Atsuta Offshore Wind Power Project,1330.0,offshore mount unknown,pre-construction,,,Ishikari Bay Offshore Wind Power Generation LLC,,Influx INC,,43.3712,141.3069,approximate,Ishikari Bay,,Hokkaido Prefecture,,Eastern Asia,Asia,L916701,G920751,,,https://gem.wiki/Ishikari_Bay_-_IBOWPG_Offshore_wind_farm,POINT (141.3069 43.3712),8.404938697814941,II,False
452,2022-09-26,Japan,Ishikari Bay (Cosmo) Offshore wind farm,,北海道石狩湾沖洋上風力発電,"Ishikari Bay Cosmo offshore wind farm, Ishikari Bay - COSMO Floating wind farm",1000.0,offshore floating,shelved,,,,,Cosmo Eco Power CO LTD,コスモエコパワー株式会社; アカシア・リニューアブルズ株式会社; 日立造船株式会社,43.2705,141.3369,approximate,Ishikari City,,Hokkaido Prefecture,,Eastern Asia,Asia,L901110,G901294,,,https://gem.wiki/Ishikari_Bay_(Cosmo)_Offshore_wind_farm,POINT (141.3369 43.2705),8.260329246520996,II,False
453,2022-09-26,Japan,Ishikari Bay (JERA) Offshore wind farm,,石狩湾沖洋上風力発電所,Ishikari Bay - JERA Offshore wind farm,520.0,offshore hard mount,pre-construction,,,,,JERA CO INC,株式会社JERA,43.3678,141.267,approximate,Ishikari City,,Hokkaido Prefecture,,Eastern Asia,Asia,L901209,G901405,,,https://gem.wiki/Ishikari_Bay_(JERA)_Offshore_wind_farm,POINT (141.267 43.3678),8.495389938354492,II,False
454,2022-09-26,Japan,Ishikari Bay (JRE) Offshore wind farm,,"石狩湾オフショアウィンドファーム, 石狩湾オフショアウィンドファーム　ジャパン・リニューアブル・エナジー株式会社","Ishikari Bay Offshore Wind Farm, Ishikari Bay Offshore Wind Farm Japan Renewable Energy Co., Ltd., Ishikari Bay Jre",1000.0,offshore mount unknown,pre-construction,,,,,Japan Renewable Energy CORP (JRE),ジャパン・リニューアブル・エナジー株式会社,43.3585,141.2232,approximate,Ishikari City,,Hokkaido Prefecture,,Eastern Asia,Asia,L901182,G901376,,,https://gem.wiki/Ishikari_Bay_(JRE)_Offshore_wind_farm,POINT (141.2232 43.3585),8.495677947998047,II,False
455,2022-09-26,Japan,Ishikari Bay (JWD) offshore wind farm,,石狩湾洋上風力発電所,,3000.0,offshore mount unknown,pre-construction,,,,,Japan Wind Development CO LTD (JWD),日本風力開発株式会社,43.2947,141.1728,approximate,Ishikari Bay,,Hokkaido Prefecture,,Eastern Asia,Asia,L916702,G920752,,,https://gem.wiki/Ishikari_Bay_(JWD)_offshore_wind_farm,POINT (141.1728 43.2947),8.225656509399414,II,False
456,2022-09-26,Japan,Ishikari Bay (Nippon Steel) offshore wind farm,,,Ishikari Bay New Port offshore wind farm,99.0,offshore mount unknown,construction,2023.0,,,,Nippon Steel Engineering CO LTD; Shimizu CORP,,43.197,141.0852,approximate,Otaru City,,Hokkaido Prefecture,,Eastern Asia,Asia,L916703,G920753,,,https://gem.wiki/Ishikari_Bay_(Nippon_Steel)_offshore_wind_farm,POINT (141.0852 43.197),6.622313499450684,III,False
457,2022-09-26,Japan,Ishikari Bay (OWF) offshore wind farm,,,,1000.0,offshore mount unknown,pre-construction,,,,,Copenhagen Infrastructure Partners (CIP); Mitsubishi Heavy Industries (MHI),,43.5096,141.1559,approximate,Otaru City,,Hokkadio Prefecture,,Eastern Asia,Asia,L916704,G920754,,,https://gem.wiki/Ishikari_Bay_(OWF)_offshore_wind_farm,POINT (141.1559 43.5096),8.571637153625488,I,False
458,2022-09-26,Japan,Ishikari Bay New Port offshore wind farm,,石狩湾沖洋上風力発電,"Ishikari Bay Offshore, Ishikari Offshore wind farm, Ishikari Bay New Port Offshore",112.0,offshore mount unknown,construction,,,,,Green Power Investment CORP (GPI),株式会社グリーンパワーインベストメント,43.2227,141.2762,approximate,Sapporo,,Hokkaido Prefecture,,Eastern Asia,Asia,L900817,G900931,,,https://gem.wiki/Ishikari_Bay_New_Port_offshore_wind_farm,POINT (141.2762 43.2227),7.9435319900512695,II,False
459,2022-09-26,Japan,Ishikari City Coastal offshore wind power project,,石狩市沿岸洋上風力発電事業,,1032.0,offshore mount unknown,pre-construction,,,,,,,43.595,141.2577,approximate,Ishikari Bay,,Hokkadio Prefecture,,Eastern Asia,Asia,L916705,G920755,,,https://gem.wiki/Ishikari_City_Coastal_offshore_wind_power_project,POINT (141.2577 43.595),8.158644676208496,II,False
460,2022-09-26,Japan,Ishikari City Offshore wind farm,,石狩湾沖洋上風力発電,"Ishikari Bay Offshore wind farm, Ishikari Bay Green Power",960.0,offshore mount unknown,shelved,,,,,Green Power Investment CORP (GPI),株式会社グリーンパワーインベストメント,43.2677,141.1728,approximate,Ishikari City,,Hokkaido Prefecture,,Eastern Asia,Asia,L901161,G901354,,,https://gem.wiki/Ishikari_City_Offshore_wind_farm,POINT (141.1728 43.2677),8.082892417907715,II,False
463,2022-09-26,Japan,Isumi City (Chiba) offshore wind power project,,いすみ市沖洋上風力発電事業,,500.0,offshore mount unknown,pre-construction,,,,,Chiba Offshore Wind Power CO LTD,千葉洋上風力株式会社,35.2265,140.4179,approximate,Isumi City,,Chiba Prefecture,,Eastern Asia,Asia,L916707,G920757,,,https://gem.wiki/Isumi_City_(Chiba)_offshore_wind_power_project,POINT (140.4179 35.2265),7.8719964027404785,II,False
464,2022-09-26,Japan,Isumi City (Green Power) offshore wind farm,,いすみ市沖洋上風力発電事業,Isumi City Offshore Wind Power Project,630.0,offshore mount unknown,pre-construction,,,,,Green Power Investment CORP (GPI),株式会社グリーンパワーインベストメント,35.28,140.4123,approximate,Isumi City,,Chiba Prefecture,,Eastern Asia,Asia,L916708,G920758,,,https://gem.wiki/Isumi_City_(Green_Power)_offshore_wind_farm,POINT (140.4123 35.28),7.257881164550781,III,False
465,2022-09-26,Japan,Isumi City (RENOVA) offshore wind farm,,千葉県いすみ市沖洋上風力発電事業,"Offshore wind power generation project in Isumi City, Chiba Prefecture",450.0,offshore mount unknown,pre-construction,,,,,RENOVA INC,株式会社レノバ,35.282,140.4231,approximate,Isumi City,,Chiba Prefecture,,Eastern Asia,Asia,L916709,G920759,,,https://gem.wiki/Isumi_City_(RENOVA)_offshore_wind_farm,POINT (140.4231 35.282),7.517890453338623,II,False
466,2022-09-26,Japan,Isumi City offshore wind power project,,いすみ市沖洋上風力発電事業,,564.0,offshore mount unknown,pre-construction,,,,,,,35.282,140.4111,approximate,Isumi City,,Chiba Prefecture,,Eastern Asia,Asia,L916710,G920760,,,https://gem.wiki/Isumi_City_offshore_wind_power_project,POINT (140.4111 35.282),7.189757347106934,III,False
474,2022-09-26,Japan,Kagoshima Offshore wind farm,,鹿児島県における洋上風力発電,Offshore wind power generation in Kagoshima Prefecture,1500.0,offshore mount unknown,pre-construction,,,,,Vena Energy; Nankoku CORP,日本風力エネルギー株式会社; 南国殖産株式会社,31.9284,130.1791,approximate,Akune City,,Kagoshima Prefecture,,Eastern Asia,Asia,L901321,G901547,,,https://gem.wiki/Kagoshima_Offshore_wind_farm,POINT (130.1791 31.9284),7.215542316436768,III,False
481,2022-02-17,Japan,Kamis Offshore wind farm,1,ウィンド・パワーかみす第1洋上風力発電所,Wind Power Kamis No.1 Offshore wind farm,14.0,offshore hard mount,operating,2010.0,,Windpower Ibaraki Company LTD,株式会社 ウィンド・パワー・いばらき,Windpower Ibaraki Company LTD,株式会社 ウィンド・パワー・いばらき,35.8905,140.7297,exact,,,,,Eastern Asia,Asia,L901049,G901223,,,https://gem.wiki/Kamis_Offshore_wind_farm,POINT (140.7297 35.8905),6.956954479217529,III,False
482,2022-02-17,Japan,Kamis Offshore wind farm,2,ウィンド・パワーかみす第2洋上風力発電所,Wind Power Kamis No.2 Offshore wind farm,16.0,offshore hard mount,operating,2013.0,,"Wind Power Co., Ltd.",株式会社 ウィンド・パワー,Windpower Ibaraki Company LTD,株式会社 ウィンド・パワー・いばらき,35.9025,140.7209,exact,,,,,Eastern Asia,Asia,L901049,G901222,,,https://gem.wiki/Kamis_Offshore_wind_farm,POINT (140.7209 35.9025),6.986551761627197,III,False
483,2022-02-17,Japan,Kamisu wind farm,,神栖風力発電所,"Mitsuuroko Kamisu wind farm, Wind Power Ibaraki No.1, Wind Power Kamisu No. 1 Offshore Wind Power Station",10.0,offshore hard mount,operating,2008.0,,Mitsuuroko Green Energy CO LTD,ミツウロコグリーンエネルギー,Mitsuuroko Green Energy CO LTD,ミツウロコグリーンエネルギー,35.8639,140.7424,approximate,,,,,Eastern Asia,Asia,L900876,G900998,D001090C08,,https://gem.wiki/Kamisu_wind_farm,POINT (140.7424 35.8639),7.031286716461182,III,False
485,2022-09-26,Japan,Karatsu City (KEPCO) offshore wind farm,,佐賀県唐津市沖における洋上風力発電事業,"Offshore wind power generation project off the coast of Karatsu City, Saga Prefecture",676.0,offshore mount unknown,pre-construction,,,,,Kansai Electric Power CO INC (KEPCO),関西電力株式会社,33.5147,130.019,approximate,Karatsu City,,Saga Prefecture,,Eastern Asia,Asia,L916713,G920763,,,https://gem.wiki/Karatsu_City_(KEPCO)_offshore_wind_farm,POINT (130.019 33.5147),6.5223069190979,III,False
486,2022-09-26,Japan,Karatsu City (RENOVA) offshore wind farm,,佐賀県唐津市沖洋上風力発電事業,Offshore wind power generation project in Karatsu City Saga Prefecture,400.0,offshore mount unknown,pre-construction,,,,,RENOVA INC,株式会社レノバ,33.5113,129.9905,approximate,Karatsu City,,Saga Prefecture,,Eastern Asia,Asia,L916714,G920764,,,https://gem.wiki/Karatsu_City_(RENOVA)_offshore_wind_farm,POINT (129.9905 33.5113),6.488653182983398,III,False
487,2022-09-26,Japan,Karatsu Offshore wind farm,,"佐賀県唐津市沖洋上風力発電事業, 唐津洋上風力発電","Karatsu Offshore Wind Project, Karatsu City, Saga Prefecture offshore wind power generation",409.0,offshore mount unknown,pre-construction,2025.0,,,,Influx INC,,33.5844,129.9541,approximate,Karatsu City,,Saga Prefecture,,Eastern Asia,Asia,L901171,G901364,,,https://gem.wiki/Karatsu_Offshore_wind_farm,POINT (129.9541 33.5844),7.001386642456055,III,False
491,2022-09-26,Japan,Kashima Port Offshore wind farm,,"鹿島港洋上風力発電, 茨城県鹿島港洋上風力発電事業","Kashima Port Offshore - North wind farm, Kashima Port Offshore - South wind farm, Ibaraki Kashima Port Offshore wind farm, Ibaraki Kashima Port South, Ibaraki Kashima Port North, Kashima Port",181.0,offshore mount unknown,pre-construction,,,,,Tokyo Gas CO LTD; Wind Power Group CO LTD; Nippon Wind Energy CO LTD,,35.9334,140.6978,approximate,,Kashima Port,Ibaraki Prefecture,,Eastern Asia,Asia,L901328,G901557,,,https://gem.wiki/Kashima_Port_Offshore_wind_farm,POINT (140.6978 35.9334),6.977884769439697,III,False
492,2022-09-26,Japan,Katagami-Oga-Akita Offshore wind farm,,秋田県潟上市・男鹿市・秋田市沖洋上風力発電,"Katagami City, Oga City, Akita City, Akita Prefecture Offshore Wind Power Generation, Katagami - Oga - Akita",400.0,offshore hard mount,pre-construction,,,,,Mitsui & CO LTD; Osaka Gas; United Planning CO LTD; Northland Power Development Services Japan CO LTD,三井物産株式会社; 大阪ガス株式会社(大阪ガス); ユナイテッド計画株式会社; Northland Power Development Services Japan 株式会社,39.8331,139.969,approximate,Katagami,,Akita Prefecture,,Eastern Asia,Asia,L901234,G901436,,,https://gem.wiki/Katagami-Oga-Akita_Offshore_wind_farm,POINT (139.969 39.8331),7.935487747192383,II,False
498,2022-09-26,Japan,Kishuu Offshore Floating wind farm,,,Kishuu offshore floatig wind project,450.0,offshore floating,pre-construction,,,Flotation Energy PLC,,,,33.7625,135.1359,approximate,,,Wakayama Prefecture,,Eastern Asia,Asia,L901397,G901643,,,https://gem.wiki/Kishuu_Offshore_Floating_wind_farm,POINT (135.1359 33.7625),7.9251484870910645,II,False
499,2022-09-26,Japan,Kitakyushu Hibikinada Offshore wind farm,,北九州響灘洋上ウィンドファーム,"Kita Kyushu Port - Hibikinada Offshore wind farm, Kitakyushu Port, Hibikinada Port, Kitakyushu Port Hibikinada",220.0,offshore mount unknown,pre-construction,2025.0,,,,Kyudenko CORP; Kyuden Mirai Energy CO LTD [30%]; Electric Power Development CO LTD (J-POWER) [40%]; Hokutaku Renewable Energy Service [10%]; Saibu Gas CO LTD [10%],Jパワー[40％]; 九電みらいエナジー株式会社[30％]; 北拓株式会社[10％]; 西部ガス株式会社[10％]; 株式会社九電工[10％],33.9728,130.7346,approximate,,,Fukuoka Prefecture,,Eastern Asia,Asia,L901219,G901417,,,https://gem.wiki/Kitakyushu_Hibikinada_Offshore_wind_farm,POINT (130.7346 33.9728),7.381667137145996,III,False
509,2022-09-26,Japan,Kyushu - Wpd Floating wind farm,,,Kyushu - WPD Concept wind farm,1000.0,offshore floating,announced,,,,,WPD AG,,32.5355,129.0911,approximate,,Fukue Island,Nagasaki Prefecture,,Eastern Asia,Asia,L901329,G901558,,,https://gem.wiki/Kyushu_-_Wpd_Floating_wind_farm,POINT (129.0911 32.5355),7.561980724334717,II,False
518,2022-09-26,Japan,Minami-Izu Offshore Wind Power Project,,パシフィコ・エナジー南伊豆洋上風力発電,Pacifico Energy Minami-Izu Offshore wind power project,500.0,offshore mount unknown,pre-construction,,,,,Pacifico Energy CO LTD,,34.5963,138.4791,approximate,,Suruga Bay,Shizuoka Prefecture,,Eastern Asia,Asia,L901245,G901449,,,https://gem.wiki/Minami-Izu_Offshore_Wind_Power_Project,POINT (138.4791 34.5963),8.088482856750488,II,False
524,2022-09-26,Japan,Murakami City Tainai City Offshore wind farm,,"新潟県村上市・胎内市沖洋上風力発電, 村上市胎内市沖洋",,600.0,offshore hard mount,pre-construction,,,,,Obayashi CORP,株式会社大林組,38.3926,139.3899,approximate,Murakami City,,Niigata Prefecture,,Eastern Asia,Asia,L901240,G901442,,,https://gem.wiki/Murakami_City_Tainai_City_Offshore_wind_farm,POINT (139.3899 38.3926),7.140366554260254,III,False
525,2022-02-17,Japan,Murakami Offshore wind farm,,村上市岩船沖洋上風力発電,Marukami City Iwafune Offshore wind power generation,220.0,offshore mount unknown,cancelled,,,Hitachi Capital,,,,38.2467,139.4213,approximate,Murakami City,,Niigata Prefecture,,Eastern Asia,Asia,L900826,G900942,,,https://gem.wiki/Murakami_Offshore_wind_farm,POINT (139.4213 38.2467),6.383248329162598,III,False
528,2022-09-26,Japan,Mutsu Bay Offshore wind farm,,陸奥湾洋上風力発電,,800.0,offshore mount unknown,shelved,,,,,Japan Wind Development CO LTD (JWD),日本風力開発株式会社,41.0159,141.2193,approximate,Yokohama,Kamikita,Aomori Prefecture,,Eastern Asia,Asia,L901087,G901267,,,https://gem.wiki/Mutsu_Bay_Offshore_wind_farm,POINT (141.2193 41.0159),8.251997947692871,II,False
529,2022-02-17,Japan,Mutsu Ogawara Offshore wind farm,,むつ小川原港洋上風力発電,,80.0,offshore mount unknown,cancelled,,,,,,,41.0169,141.4109,approximate,Rokkasho,Kamikita-gun,Aomori Prefecture,,Eastern Asia,Asia,L901435,G901688,,,https://gem.wiki/Mutsu_Ogawara_Offshore_wind_farm,POINT (141.4109 41.0169),7.143494606018066,III,False
542,2022-09-26,Japan,Niigata (Flotation Energy) offshore wind farm,,,,500.0,offshore mount unknown,announced,2027.0,,,,Flotation Energy PLC,,38.1623,138.8986,approximate,,,Niigata Prefecture,,Eastern Asia,Asia,L916718,G920768,,,https://gem.wiki/Niigata_(Flotation_Energy)_offshore_wind_farm,POINT (138.8986 38.1623),6.954673767089844,III,False
543,2022-09-26,Japan,Niigata (Invenergy) offshore wind farm,,新潟村上市・胎内市沖（日本海）洋上風力発電事業,"Niigata Murakami City/Tanai City Offshore (Sea of ​​Japan) Offshore Wind Power Project, Niigata Murakami City offshore wind farm",475.0,offshore mount unknown,pre-construction,,,,,Invenergy Wind LLC,インベナジー・ウインド合同会社,38.4747,139.3928,approximate,Murakami City,,Niigata Prefecture,,Eastern Asia,Asia,L916719,G920769,,,https://gem.wiki/Niigata_(Invenergy)_offshore_wind_farm,POINT (139.3928 38.4747),6.904799938201904,III,False
552,2022-09-26,Japan,Northern Akita Offshore Wind,,,,448.0,offshore hard mount,announced,2025.0,,,,,,40.0649,139.8008,approximate,,,Akita Prefecture,,Eastern Asia,Asia,L901426,G901678,,,https://gem.wiki/Northern_Akita_Offshore_Wind,POINT (139.8008 40.0649),7.904077053070068,II,False
553,2022-09-26,Japan,Northern Niigata Offshore wind farm,,新潟北部沖洋上風力発電,Murakami and Tainai - Taisei Corporation Offshore Wind Farm,400.0,offshore mount unknown,pre-construction,,,,,Honma Gumi LTD,株式会社本間組,38.1482,139.3258,approximate,Murakami City,,Niigata Prefecture,,Eastern Asia,Asia,L901282,G901497,,,https://gem.wiki/Northern_Niigata_Offshore_wind_farm,POINT (139.3258 38.1482),7.49212121963501,III,False
555,2022-09-26,Japan,Noshiro City (C-TECH) Offshore wind farm,,,Noshiro Offshore,479.0,offshore mount unknown,announced,2028.0,,Mitsubishi CORP (MC); C-Tech CORP,,C-Tech CORP; Mitsubishi CORP (MC),,40.1266,139.9338,approximate,Noshiro City,,Akita Prefecture,,Eastern Asia,Asia,L900871,G900993,,,https://gem.wiki/Noshiro_City_(C-TECH)_Offshore_wind_farm,POINT (139.9338 40.1266),7.782064437866211,II,False
556,2022-09-26,Japan,Noshiro City (JRE) Offshore wind farm,,,,155.0,offshore mount unknown,pre-construction,,,,,Japan Renewable Energy CORP (JRE); ENEOS CORP; Tohoku Electric Power CO INC,,40.2044,139.9407,approximate,Noshiro City,,Akita Prefecture,,Eastern Asia,Asia,L901184,G901379,,,https://gem.wiki/Noshiro_City_(JRE)_Offshore_wind_farm,POINT (139.9407 40.2044),8.02013874053955,II,False
557,2022-09-26,Japan,Noshiro City (Marubeni) Offshore wind farm,,たち秋田洋上風力発電,Noshiro Port offshore wind farm,84.0,offshore hard mount,construction,2022.0,,Akita Offshore Wind CORP (AOW),,Marubeni CORP; Obayashi CORP; Tohoku Electric Power CO INC; Cosmo Eco Power CO LTD; Kansai Electric Power CO INC (KEPCO); Chubu Electric Power CO INC; Akita Bank LTD; Ohmori CO LTD; Sawakigumi CORP; Kyowa Oil CO LTD; Kato Kensetsu CO LTD; Kanpu CO LTD; Sankyo CO LTD,丸紅株式会社; 株式会社大林組; 東北電力株式会社; コスモエコパワー株式会社; 関西電力株式会社; 中部電力株式会社; 株式会社秋田銀行; 大森建設株式会社; 株式会社沢木組; 協和石油株式会社; 株式会社加藤建設; 株式会社寒風; 三共株式会社,40.2005,140.001,approximate,,Noshiro Port,Akita Prefecture,,Eastern Asia,Asia,L900715,G900818,,,https://gem.wiki/Noshiro_City_(Marubeni)_Offshore_wind_farm,POINT (140.001 40.2005),7.350526809692383,III,False
558,2022-09-26,Japan,Noshiro City (Mitsubishi) Offshore wind farm,,秋田県八峰町・能代市沖における洋上風力発電,"Noshiro City - Happo Town - Akita Prefecture Offshore Wind Farm, Happou-Noshiro-Mitsubishi Offshore Wind Farm, Noshiro - Happo - Akita",405.0,offshore hard mount,pre-construction,,,,,Mitsubishi CORP (MC),三菱商事エナジーソリューションズ株式会社,40.2594,139.9556,approximate,Noshiro City,,Akita Prefecture,,Eastern Asia,Asia,L901233,G901435,,,https://gem.wiki/Noshiro_City_(Mitsubishi)_Offshore_wind_farm,POINT (139.9556 40.2594),7.973858833312988,II,False
561,2022-02-17,Japan,Noshiro-Mitane-Oga Offshore wind farm,1,,"Noshiro Mitan Oga Offshore Project, Noshiro Mitane Oga Offshore wind farm",475.0,offshore mount unknown,cancelled,,,,,INPEX CORP; Japan Petroleum Exploration CO LTD (JAPEX); JR-EAST Energy Development CO LTD; Kato Construction CO LTD; Narita Construction CO LTD; Sumitomo CORP; Tokyo Electric Power Company Holdings INC (TEPCO); Venti Japan INC,,40.1266,139.9338,approximate,Noshiro City,,Akita Prefecture,,Eastern Asia,Asia,L901174,G901368,,,https://gem.wiki/Noshiro-Mitane-Oga_Offshore_wind_farm,POINT (139.9338 40.1266),7.782064437866211,II,False
570,2022-02-17,Japan,Omaezaki Port Offshore wind farm,,御前崎港 再生可能エネルギーゾーン 静岡県、御前崎港で洋上風力,,41.0,offshore hard mount,cancelled,,,,,Community Owners - Shizuoka Prefecture,,34.6183,138.2305,approximate,,,,,Eastern Asia,Asia,L901272,G901483,,,https://gem.wiki/Omaezaki_Port_Offshore_wind_farm,POINT (138.2305 34.6183),7.568525314331055,II,False
572,2022-09-26,Japan,Optifflow Floating wind farm,,,,400.0,offshore floating,announced,2027.0,,,,,,34.596,136.9305,approximate,,Ise Bay,Aichi Prefecture,,Eastern Asia,Asia,L901228,G901430,,,https://gem.wiki/Optifflow_Floating_wind_farm,POINT (136.9305 34.596),7.748017311096191,II,False
574,2022-09-26,Japan,OSCF/Chuden/Rikuden-Awara Offshore wind farm,,あわら沖洋上風力発電,OSCF-Chuden-Rikuden-Awara wind farm,200.0,offshore mount unknown,shelved,,,,,OSCF CO LTD; Chubu Electric Power CO INC; Hokuriku Electric Power Company,カブシキカイシャ オーエスシーエフ; 中部電力株式会社; 北陸電力株式 会社,36.3942,136.285,approximate,Awara City,,Fukui Prefecture,,Eastern Asia,Asia,L901244,G901446,,,https://gem.wiki/OSCF/Chuden/Rikuden-Awara_Offshore_wind_farm,POINT (136.285 36.3942),7.413944244384766,III,False
582,2022-09-26,Japan,Saga Karatsu City (Iberdola Renewable Japan) Offshore wind farm,,"佐賀県北部海域洋上風力発電, 佐賀県唐津市沖洋上風力発電事業","Karatsu City Offshore wind farm, Saga Karatsu City",600.0,offshore mount unknown,pre-construction,,,Saga Offshore Wind Power CO LTD (KK); Satsuma Offshore Wind Power CO LTD,,Iberdrola Renewables Japan; Osaka Gas; Macquarie Green Investment Group (GIG),,33.564,129.778,approximate,Karatsu City,,Saga Prefecture,,Eastern Asia,Asia,L901008,G901163,,,https://gem.wiki/Saga_Karatsu_City_(Iberdola_Renewable_Japan)_Offshore_wind_farm,POINT (129.778 33.564),7.2430419921875,III,False
583,2022-09-26,Japan,Saga Karatsu City (Vena Energy) Offshore wind farm,,佐賀県における洋上風力発電,,400.0,offshore mount unknown,pre-construction,,,,,Vena Energy,日本風力エネルギー株式会社,33.564,129.778,approximate,Karatsu City,,Saga Prefecture,,Eastern Asia,Asia,L901317,G901543,,,https://gem.wiki/Saga_Karatsu_City_(Vena_Energy)_Offshore_wind_farm,POINT (129.778 33.564),7.2430419921875,III,False
584,2022-09-26,Japan,Saikai-Enoshima Offshore wind farm,,西海江島洋上風力発電,Saikai Enoshima offshore wind farm,300.0,offshore mount unknown,pre-construction,,,,,Japan Renewable Energy CORP (JRE); WPD AG,,33.0059,129.3277,approximate,Sakito-cho,Nishisonogi,Nagasaki Prefecture,,Eastern Asia,Asia,L901188,G901383,,,https://gem.wiki/Saikai-Enoshima_Offshore_wind_farm,POINT (129.3277 33.0059),7.483982086181641,III,False
585,2022-02-17,Japan,Sakata North Port (Nearshore) Offshore wind farm,1,"JRE酒田風力発電所, 酒田風力発電事業",JRE Sakata wind farm,16.0,offshore hard mount,operating,2014.0,,GK JRE Sakata Furyoku,合同会社JRE酒田風力,Japan Renewable Energy CORP (JRE),ジャパン・リニューアブル・エナジー株式会社,38.9689,139.8231,exact,,,,,Eastern Asia,Asia,L900811,G900924,D000132B06,,https://gem.wiki/Sakata_North_Port_(Nearshore)_Offshore_wind_farm,POINT (139.8231 38.9689),7.287639617919922,III,False
586,2022-09-26,Japan,Sakata North Port (Nearshore) Offshore wind farm,RP-1,"JRE酒田風力発電所, 酒田風力発電事業, JRE酒田風力リプレース","Sakata wind farm, Sakata North Port - Repowering - (nearshore), Sakata North Port - Repowering, JRE Sakata Wind Power Replacement",28.0,offshore hard mount,pre-construction,2026.0,,,,Japan Renewable Energy CORP (JRE),ジャパン・リニューアブル・エナジー株式会社,38.9613,139.8199,exact,,,,,Eastern Asia,Asia,L900811,G901378,D997716B06,,https://gem.wiki/Sakata_North_Port_(Nearshore)_Offshore_wind_farm,POINT (139.8199 38.9613),7.352505207061768,III,False
587,2022-09-26,Japan,Sakura Offshore Floating wind farm,,,"Sakura offshore floating wind project, Sakura Floating wind farm",520.0,offshore floating,pre-construction,,,,,Flotation Energy PLC,,35.5923,140.805,approximate,,,Chiba Prefecture,,Eastern Asia,Asia,L901152,G901344,,,https://gem.wiki/Sakura_Offshore_Floating_wind_farm,POINT (140.805 35.5923),8.183208465576172,II,False
593,2022-09-26,Japan,Satsuma Offshore wind farm,,薩摩洋上風力発電事業,Satsuma Offshore Wind Power Project,600.0,offshore mount unknown,announced,,,,,Iberdrola Renewables Japan; Mitsui Fudosan; Green Investment Group (GIG),,31.8195,130.1442,approximate,,,Kagoshima Prefecture,,Eastern Asia,Asia,L901167,G901360,,,https://gem.wiki/Satsuma_Offshore_wind_farm,POINT (130.1442 31.8195),7.293435573577881,III,False
594,2022-09-26,Japan,Seihoku-Oki Offshore wind farm,1,"青森西北沖洋上風力, 青森西北沖洋上風力発電事業","Seihoku-oki offshore wind farm, Nishikita wind park, Aomori Northwest offshore wind farm",500.0,offshore mount unknown,pre-construction,2025.0,,Aomori-Seihoku-Oki (Northwest) Offshore Wind GK,青森西北沖洋上風力合同会社,Cosmo Eco Power CO LTD; Iberdrola Renewables Japan; Hitachi Zosen Inova AG,コスモエコパワー株式会社; アカシア・リニューアブルズ株式会社; 日立造船株式会社,40.926,140.233,approximate,Nakadomari,Kitatsugaru District,Aomori Prefecture,,Eastern Asia,Asia,L900719,G900822,,,https://gem.wiki/Seihoku-Oki_Offshore_wind_farm,POINT (140.233 40.926),8.363306045532227,II,False
617,2022-09-26,Japan,Shizen Full Scale Floating wind farm,,,Shizen Full Scale,200.0,offshore floating,announced,2025.0,,,,Shizen Energy Group,,32.3131,131.7414,approximate,,,Kyushu Prefecture,,Eastern Asia,Asia,L901168,G901361,,,https://gem.wiki/Shizen_Full_Scale_Floating_wind_farm,POINT (131.7414 32.3131),6.760948657989502,III,False
631,2022-09-26,Japan,"Tainai City, Niigata Prefecture And Murakami City Offshore wind farm",,新潟県胎内市及び村上市沖洋上風力発電,"Tainai City, Niigata Prefecture and Murakami City Offshore Wind Power Generation, Tainai - Murakami",720.0,offshore mount unknown,pre-construction,,,,,RWE Renewables Japan GK,RWE Renewables Japan 合同会社,38.1257,139.3413,approximate,Tainai City,,Niigata Prefecture,,Eastern Asia,Asia,L901263,G901474,,,"https://gem.wiki/Tainai_City,_Niigata_Prefecture_And_Murakami_City_Offshore_wind_farm",POINT (139.3413 38.1257),7.397765159606934,III,False
641,2022-09-26,Japan,Toki Floating wind farm,1,,"Toki offshore floating wind project, Toki phase 1 offshore wind farm",100.0,offshore floating,pre-construction,,,,,Flotation Energy PLC,,38.1604,139.1097,approximate,,,Niigata Prefecture,,Eastern Asia,Asia,L901153,G901345,,,https://gem.wiki/Toki_Floating_wind_farm,POINT (139.1097 38.1604),7.11184549331665,III,False
642,2022-09-26,Japan,Toki Floating wind farm,2,,"Toki offshore floating wind project, Toki phase 2 offshore wind farm",900.0,offshore floating,pre-construction,,,,,Flotation Energy PLC,,38.1635,139.1097,approximate,,,Niigata Prefecture,,Eastern Asia,Asia,L901153,G901346,,,https://gem.wiki/Toki_Floating_wind_farm,POINT (139.1097 38.1635),7.116493225097656,III,False
651,2022-09-26,Japan,Tsugaru (GPI) Offshore wind farm,,"つがる洋上風力発電事業, つがる洋上風力","Tsugaru Offshore Wind, Tsugaru Green Power wind farm",480.0,offshore mount unknown,pre-construction,2028.0,,,,Tohoku Electric Power CO INC; ENEOS CORP; Japan Renewable Energy CORP (JRE),,40.8699,140.2301,approximate,,,Aomori Prefecture,,Eastern Asia,Asia,L901160,G901353,,,https://gem.wiki/Tsugaru_(GPI)_Offshore_wind_farm,POINT (140.2301 40.8699),8.3027925491333,II,False
652,2022-09-26,Japan,Tsugaru (JERA) Offshore wind farm,,青森県つがる沖南部洋上風力発電,"Southern Tsugaru wind, Offshore of Tsugaru City and Ajigasawa Town Offshore wind farm, Jera Southern Tsugaru Project 1",600.0,offshore mount unknown,pre-construction,,,,,JERA CO INC,株式会社JERA,40.8613,140.2719,approximate,Tsugaru City,,Aomori Prefecture,,Eastern Asia,Asia,L901208,G901404,,,https://gem.wiki/Tsugaru_(JERA)_Offshore_wind_farm,POINT (140.2719 40.8613),7.999704837799072,II,False
653,2022-09-26,Japan,Tsugaru (JWD) Offshore wind farm,,"青森県日本海沖洋上風力発電, 青森県日本海沖洋上風力発電事業",Aomori offshore wind power generation project in the Sea of ​​Japan,800.0,offshore hard mount,pre-construction,2024.0,,Japan Wind Development CO LTD (JWD),日本風力開発株式会社,Japan Wind Development CO LTD (JWD),日本風力開発株式会社,41.171,140.2913,approximate,Nakadomari,Kitatsugaru District,Aomori Prefecture,,Eastern Asia,Asia,L900851,G900968,,,https://gem.wiki/Tsugaru_(JWD)_Offshore_wind_farm,POINT (140.2913 41.171),8.532410621643066,I,False
654,2022-09-26,Japan,Tsugaru (RWE) Offshore wind farm,,青森県沖日本海（南側）洋上風力発電,Offshore wind power generation business in the Sea of ​​Japan (south side) off the coast of Aomori Prefecture,900.0,offshore mount unknown,pre-construction,,,,,RWE Renewables Japan GK; Mitsui & CO; Osaka Gas,RWE Renewables Japan 合同会社; 三井物産株式会社; 大阪ガス株式会社(大阪ガス),40.8894,140.277,approximate,Tsugaru City,Nishitsugaru,Aomori Prefecture,,Eastern Asia,Asia,L901264,G901475,,,https://gem.wiki/Tsugaru_(RWE)_Offshore_wind_farm,POINT (140.277 40.8894),8.03833293914795,II,False
655,2022-09-26,Japan,Tsugaru Ajigasawa offshore wind farm,,青森県つがる市・鰺ヶ沢町沖洋上風力発電事業,"Tsugaru City and Ajigasawa Town, Aomori Prefecture Offshore Wind Power Project",600.0,offshore mount unknown,pre-construction,,,,,Tokyu Land CORP; CI IV Transfer Coöperatief UA,東急不動産株式会社,40.8323,140.2101,approximate,Tugaru City,,Aomori Prefecture,,Eastern Asia,Asia,L916733,G920785,,,https://gem.wiki/Tsugaru_Ajigasawa_offshore_wind_farm,POINT (140.2101 40.8323),8.164423942565918,II,False
663,2022-09-26,Japan,Wakayama West Offshore wind farm,,パシフィコ・エナジー株式会社,Pacifico Energy Wakayuma Western Offshore Wind Power,500.0,offshore hard mount,shelved,,,,,Pacifico Energy CO LTD; SSE Renewables,,33.8639,135.0231,approximate,,General Waters Area,Wakayama Prefecture,,Eastern Asia,Asia,L901246,G901450,,,https://gem.wiki/Wakayama_West_Offshore_wind_farm,POINT (135.0231 33.8639),8.173408508300781,II,False
664,2022-02-17,Japan,Wakkanai Port Offshore wind farm,,稚内港洋上風力発電,,15.0,offshore mount unknown,cancelled,,,,,Eurus Energy,株式会社ユーラスエナジーホールディングス,45.4122,141.7011,approximate,,Wakkanai Port,Hokkaido Prefecture,,Eastern Asia,Asia,L901144,G901335,,,https://gem.wiki/Wakkanai_Port_Offshore_wind_farm,POINT (141.7011 45.4122),7.806216239929199,II,False
669,2022-09-26,Japan,West Offshore Wind Power Generation Project,,,,392.0,offshore mount unknown,announced,2026.0,,,,Electric Power Development CO LTD (J-POWER); Sumitomo CORP,,33.001,129.331,approximate,,,Nagasaki Prefecture,,Eastern Asia,Asia,L901125,G901311,,,https://gem.wiki/West_Offshore_Wind_Power_Generation_Project,POINT (129.331 33.001),7.4810309410095215,III,False
671,2022-09-26,Japan,Yamagata Prefecture Yuza Offshore wind farm,,,,450.0,offshore mount unknown,pre-construction,,,,,Cosmo Eco Power CO LTD; Kato Sogyo Construction CO LTD,,39.0443,139.8113,approximate,Yuza,,Yamagata Prefecture,,Eastern Asia,Asia,L916735,G920787,,,https://gem.wiki/Yamagata_Prefecture_Yuza_Offshore_wind_farm,POINT (139.8113 39.0443),7.70752477645874,II,False
672,2022-09-26,Japan,Yamagata Yuza Town Offshore Wind Power Project_Invenergy Wind Llc,,,Yuza Town - Invenergy Wind Gk,456.0,offshore mount unknown,announced,2028.0,,,,Invenergy Wind LLC,,39.0244,139.8177,approximate,,,Yamagata Prefecture,,Eastern Asia,Asia,L901175,G901369,,,https://gem.wiki/Yamagata_Yuza_Town_Offshore_Wind_Power_Project_Invenergy_Wind_Llc,POINT (139.8177 39.0244),7.638638973236084,II,False
673,2022-09-26,Japan,Yamaguchi Floating Offshore Wind Project,,,Yamaguchi FOWF Floating wind farm,400.0,offshore floating,announced,2025.0,,,,Univergy Solar; Saitec Offshore,,34.2011,131.2409,approximate,,,Yamaguchi Prefecture,,Eastern Asia,Asia,L901310,G901534,,,https://gem.wiki/Yamaguchi_Floating_Offshore_Wind_Project,POINT (131.2409 34.2011),4.488360404968262,III,False
675,2022-09-26,Japan,Yasuoka Offshore wind farm,,安岡沖洋上風力発電事業,MAEDA - Yasuoka Offshore wind farm,60.0,offshore mount unknown,shelved,,,,,Maeda CORP,前田建設工業株式会社,34.0283,130.8731,approximate,Yasuoka,,Yamaguchi Prefecture,,Eastern Asia,Asia,L901223,G901423,,,https://gem.wiki/Yasuoka_Offshore_wind_farm,POINT (130.8731 34.0283),6.960554122924805,III,False
677,2022-09-26,Japan,Yokohama Town Offshore wind farm,,横浜町洋上風力発電,,80.0,offshore mount unknown,cancelled,,,,,Aomori Wind Development CO LTD; Maeda CORP,,41.0376,141.192,approximate,Yokohama-cho,Kamikita District,Aomori Prefecture,,Eastern Asia,Asia,L901436,G901689,,,https://gem.wiki/Yokohama_Town_Offshore_wind_farm,POINT (141.192 41.0376),8.399776458740234,II,False
680,2022-09-26,Japan,Yurihonjo (Mitsubishi) Offshore wind farm,,,"Akita Central Waters Offshore Wind Power Generation, Yurihonjo Chubu Electric Power-VENTI-Mitsubishi, Yurihonjo Offshore",819.0,offshore mount unknown,pre-construction,2030.0,,Mitsubishi CORP (MC); Venti Japan INC; C-Tech CORP,,Mitsubishi CORP (MC); Venti Japan INC; C-Tech CORP,,39.4328,139.9729,approximate,Yurihonjo,,Akita Prefecture,,Eastern Asia,Asia,L900873,G900995,,,https://gem.wiki/Yurihonjo_(Mitsubishi)_Offshore_wind_farm,POINT (139.9729 39.4328),8.100510597229004,II,False
681,2022-09-26,Japan,Yurihonjo (Renova) Offshore wind farm,1,,"Akita Yurihonjo Offshore Wind, Renova Yurihonjo wind farm, AYOW project, Akita Yurihonjo coast offshore wind farm, Yurihonjo Offshore",700.0,offshore mount unknown,pre-construction,2024.0,,,,RENOVA INC; Cosmo Eco Power CO LTD; JR-EAST Energy Development CO LTD; Tohoku Electric Power CO INC; other,,39.461,140.001,approximate,Yurihonjo,,Akita Prefecture,,Eastern Asia,Asia,L901261,G901472,,,https://gem.wiki/Yurihonjo_(Renova)_Offshore_wind_farm,POINT (140.001 39.461),7.967663288116455,II,False
682,2022-09-26,Japan,Yurihonjo (Renova) Offshore wind farm,2,,"Akita Yurihonjo Offshore Wind, Renova Yurihonjo wind farm, AYOW project, Akita Yurihonjo coast offshore wind farm, Yurihonjo Offshore, Yurihonjo Offshore",838.0,offshore mount unknown,announced,,,,,RENOVA INC; Cosmo Eco Power CO LTD; JR-EAST Energy Development CO LTD; Tohoku Electric Power CO INC,,39.4511,139.9677,approximate,Yurihonjo,,Akita Prefecture,,Eastern Asia,Asia,L901261,G901471,,,https://gem.wiki/Yurihonjo_(Renova)_Offshore_wind_farm,POINT (139.9677 39.4511),8.111979484558105,II,False
686,2022-09-26,Japan,Yuza (ITOCHU) offshore wind farm,,山形県飽海郡遊佐町沖着床式洋上風力発電事業,"Offshore fixed-type offshore wind power generation project, Offshore fixed-type offshore wind power generation project in Yuza-cho Akumi-gun Yamagata Prefecture",494.0,offshore hard mount,pre-construction,,,,,ITOCHU CORP,伊藤忠商事株式会社,39.0492,139.8247,approximate,Yusa,Akumi District,Yamagata Prefecture,,Eastern Asia,Asia,L916738,G920790,,,https://gem.wiki/Yuza_(ITOCHU)_offshore_wind_farm,POINT (139.8247 39.0492),7.581122398376465,II,False
687,2022-09-26,Japan,Yuza (JWD) offshore wind farm,,,,500.0,offshore mount unknown,pre-construction,,,,,Japan Wind Development CO LTD (JWD),,39.0338,139.8229,approximate,Yuza,,Yamagata Prefecture,,Eastern Asia,Asia,L916739,G920791,,,https://gem.wiki/Yuza_(JWD)_offshore_wind_farm,POINT (139.8229 39.0338),7.614098072052002,II,False
688,2022-09-26,Japan,Yuzau Town (Marubeni) Offshore wind farm,,山形県遊佐町沖着床式洋上風力発電,"Bottom-mounted offshore wind power generation off the coast of Yusa Town Yamagata Prefecture, Yuza - Kansai - Marubeni",494.0,offshore hard mount,pre-construction,,,,,Marubeni CORP; Kansai Electric Power Company INC (KEPCO),丸紅株式会社; 関西電力株式会社,39.0617,139.8122,approximate,Yuza,Akumi District,Yamagata Prefecture,,Eastern Asia,Asia,L901231,G901433,,,https://gem.wiki/Yuzau_Town_(Marubeni)_Offshore_wind_farm,POINT (139.8122 39.0617),7.679487228393555,II,False
689,2022-09-26,Japan,Yuzau Town (TEPCO) Offshore wind farm,,山形県飽海郡遊佐町沖洋上風力発電事業,"Oki Offshore Wind Power Generation Project, Offshore wind power generation project off the coast of Yuza Town Akumi District Yamagata Prefecture, Yuza - Akumi - Amagata",500.0,offshore hard mount,pre-construction,,,,,Tokyo Electric Power Company Holdings INC (TEPCO),東京電力リニューアブルパワー株式会社,39.071,139.8247,approximate,Yuza,Akumi District,Yamagata Prefecture,,Eastern Asia,Asia,L901286,G901502,,,https://gem.wiki/Yuzau_Town_(TEPCO)_Offshore_wind_farm,POINT (139.8247 39.071),7.46904182434082,III,False
816,2022-06-21,Philippines,Aparri Bay wind farm,1,,Aparri Bay (Offshore) Wind Power Project,600.0,offshore mount unknown,pre-construction,,,,,Triconti ECC Renewables CORP (TRICONTI); Iberdrola SA,,18.4914,121.7043,approximate,,,,Cagayan Province,South-eastern Asia,Asia,L901297,G901515,DOE-EPIMB-SIS:2021-02-013,,https://gem.wiki/Aparri_Bay_wind_farm,POINT (121.7043 18.4914),6.73378324508667,III,False
831,2022-06-21,Philippines,Bulalacao offshore wind project,,,Bulalacao Offshore,1200.0,offshore mount unknown,pre-construction,,,,,CleanTech Global Renewables INC,,12.2677,121.2962,approximate,Bulalacao,,,Oriental Mindoro Province,South-eastern Asia,Asia,L916761,G920816,,,https://gem.wiki/Bulalacao_offshore_wind_project,POINT (121.2962 12.2677),9.049210548400879,I,False
838,2022-06-27,Philippines,Calatagan Offshore Wind Power Project,,,,1024.0,offshore mount unknown,pre-construction,,,,,,,13.9168,120.7231,approximate,Balayan,,,Batangas Province,South-eastern Asia,Asia,L916766,G920822,DOE-EPIMB-SIS:2021-11-088,,https://gem.wiki/Calatagan_Offshore_Wind_Power_Project,POINT (120.7231 13.9168),7.636345386505127,II,False
857,2022-06-21,Philippines,Frontera Bay Offshore Wind Project,,,Frontera Bay (Offshore) Wind Power Project; Ivisan Frontera Bay Offshore Wind Farm (450MW),450.0,offshore mount unknown,pre-construction,,,,,Triconti ECC Renewables CORP (TRICONTI); Iberdrola SA,,14.3871,120.7301,approximate,,,Luzon Island,Cavite Province,South-eastern Asia,Asia,L901298,G901516,DOE-EPIMB-SIS:2021-02-010,,https://gem.wiki/Frontera_Bay_Offshore_Wind_Project,POINT (120.7301 14.3871),7.084683418273926,III,False
858,2022-06-27,Philippines,Guimaras Strait wind farm,1,,Guimaras Strait Wind Power Project; Guimaras Strait I Wind Power Project,100.0,offshore mount unknown,pre-construction,,,,,Triconti ECC Renewables CORP (TRICONTI); Iberdrola SA,,10.7799,122.8532,approximate,,,Enrique B. Magalona,Negros,South-eastern Asia,Asia,L901299,G920829,,,https://gem.wiki/Guimaras_Strait_wind_farm,POINT (122.8532 10.7799),8.053969383239746,II,False
859,2022-06-27,Philippines,Guimaras Strait wind farm,2,,Guimaras Strait Wind Power Project; Guimaras Strait II Wind Power Project,600.0,offshore hard mount,pre-construction,2029.0,,,,Triconti ECC Renewables CORP (TRICONTI); Iberdrola SA,,10.7799,122.8532,approximate,,,,Negros,South-eastern Asia,Asia,L901299,G901517,DOE-EPIMB-SIS:2021-02-009,,https://gem.wiki/Guimaras_Strait_wind_farm,POINT (122.8532 10.7799),8.053969383239746,II,False
877,2022-06-27,Philippines,Northern Luzon Offshore Wind Power Project,,,Norther Luzon Offshore Wind Power Project,2000.0,offshore mount unknown,pre-construction,2030.0,,,,PetroGreen Energy CORP (PGEC),,18.2893,120.5093,approximate,,,,Ilocos Norte Province,South-eastern Asia,Asia,L916771,G920831,,,https://gem.wiki/Northern_Luzon_Offshore_Wind_Power_Project,POINT (120.5093 18.2893),6.243371486663818,III,False
894,2022-06-21,Philippines,San Miguel Bay Wind Power Project,,,San Miguel Bay (Offshore) Wind Power Project,600.0,offshore mount unknown,pre-construction,,,,,Triconti ECC Renewables CORP (TRICONTI); Windkraft Group,,14.1249,123.1441,approximate,,,Luzon Island,Camarines Norte Province,South-eastern Asia,Asia,L901300,G901518,DOE-EPIMB-SIS:2021-02-011,,https://gem.wiki/San_Miguel_Bay_Wind_Power_Project,POINT (123.1441 14.1249),6.748319149017334,III,False
905,2022-06-21,Philippines,Tayabas Bay Wind Power Project,,,,275.0,offshore mount unknown,pre-construction,2027.0,,,,,,15.2277,121.6442,approximate,,,,Quezon Province,South-eastern Asia,Asia,L916778,G920838,,,https://gem.wiki/Tayabas_Bay_Wind_Power_Project,POINT (121.6442 15.2277),6.706901550292969,III,False
910,2022-07-29,South Korea,Angel's offshore wind power plant,,천사어의 해상풍력발전소,,99.0,offshore mount unknown,pre-construction,2023.0,,,,,,35.1226,126.1429,approximate,Jido-eup,Sinan-gun,,South Jeolla Province,Eastern Asia,Asia,L916780,G920840,,,https://gem.wiki/Angel's_offshore_wind_power_plant,POINT (126.1429 35.1226),7.009528160095215,III,False
911,2022-07-29,South Korea,Anma-Do Offshore Wind Power Complex,1,안마해상풍력,"Anma Offshore Wind Power, Sea Breeze",224.0,offshore hard mount,pre-construction,2024.0,,,,Jeonnam Development CORP; Korea Hydro & Nuclear Power (KHNP) CO LTD; Hyundai Engineering (HEC); Korea Wind Power Industry Consortium,전남개발공사; 한국수력원자력(주); 현대엔지니어링; 한국풍력산업 컨소시엄,35.3421,125.9605,approximate,Nakwol-myeon,Yeongwang-gun,,South Jeolla Province,Eastern Asia,Asia,L900857,G900975,,,https://gem.wiki/Anma-Do_Offshore_Wind_Power_Complex,POINT (125.9605 35.3421),7.11732816696167,III,False
912,2022-07-29,South Korea,Anma-Do Offshore Wind Power Complex,2,"영광 안마2 해상풍력, 안마2해상풍력","Yeonggwang Anma 2 Offshore wind power, Anma 2 offshore wind power, Sea Breeze",304.0,offshore hard mount,pre-construction,2024.0,,,,Jeonnam Development CORP; Korea Hydro & Nuclear Power (KHNP) CO LTD; Hyundai Engineering (HEC); Korea Wind Power Industry Consortium,전남개발공사; 한국수력원자력(주); 현대엔지니어링; 한국풍력산업 컨소시엄,35.3421,125.9605,approximate,Nakwol-myeon,Yeongwang-gun,,South Jeolla Province,Eastern Asia,Asia,L900857,G900976,,,https://gem.wiki/Anma-Do_Offshore_Wind_Power_Complex,POINT (125.9605 35.3421),7.11732816696167,III,False
913,2022-07-29,South Korea,Ansan Pungdo Offshore wind farm,,,,200.0,offshore mount unknown,pre-construction,2024.0,,,,Seohae Green Power CO,,37.2119,126.5141,approximate,Ansan-si,,,Gyeonggi-do Province,Eastern Asia,Asia,L900967,G901110,,,https://gem.wiki/Ansan_Pungdo_Offshore_wind_farm,POINT (126.5141 37.2119),6.568570137023926,III,False
914,2022-07-29,South Korea,Ansan Pungdo Offshore Wind Power,,안산 풍도 해상풍력,,200.0,offshore mount unknown,pre-construction,,,,,,,37.1558,126.5651,approximate,Danwon-gu,,,Gyeonggi-do Province,Eastern Asia,Asia,L916781,G920841,,,https://gem.wiki/Ansan_Pungdo_Offshore_Wind_Power,POINT (126.5651 37.1558),6.576344013214111,III,False
915,2022-07-29,South Korea,Aphae wind farm,1,,Abhae 1 Wind Farm,40.0,offshore mount unknown,pre-construction,,,,,Aphae Wind Power Plant CO LTD,,34.912,125.902,approximate,,Sinan-gun,,South Jeolla Province,Eastern Asia,Asia,L900890,G901017,,,https://gem.wiki/Aphae_wind_farm,POINT (125.902 34.912),7.460086822509766,III,False
916,2022-07-29,South Korea,Aphae wind farm,2,,Abhae 2 Wind Farm,20.0,offshore hard mount,cancelled,,,,,,,34.9117,125.902,approximate,,Sinan-gun,,South Jeolla Province,Eastern Asia,Asia,L900890,G901018,,,https://gem.wiki/Aphae_wind_farm,POINT (125.902 34.9117),7.460086822509766,III,False
919,2022-07-29,South Korea,Bobae Jindo Offshore wind farm,,,"Bobae, Jindo - Northland Power Offshore wind farm",600.0,offshore mount unknown,pre-construction,,,,,,,34.1649,126.1165,approximate,,Jindo-gun,,,Eastern Asia,Asia,L916783,G920843,,,https://gem.wiki/Bobae_Jindo_Offshore_wind_farm,POINT (126.1165 34.1649),8.012640953063965,II,False
922,2022-07-29,South Korea,Boryeong wind farm,,보령해상풍력,Boryeong Offshore Wind Farm,1000.0,offshore hard mount,pre-construction,,,,,Korea Midland Power CO LTD (KOMIPO),,36.1827,126.0909,approximate,Boryeong-si,,,South Chungcheong Province,Eastern Asia,Asia,L900941,G901076,,,https://gem.wiki/Boryeong_wind_farm,POINT (126.0909 36.1827),6.942726135253906,III,False
924,2022-07-29,South Korea,Cheinsaeoui Offshore wind farm,,,Chunsaeoeui Offshore Wind Power,99.0,offshore mount unknown,pre-construction,,,,,,,37.0852,126.1343,approximate,,,,,Eastern Asia,Asia,L901440,G901695,,,https://gem.wiki/Cheinsaeoui_Offshore_wind_farm,POINT (126.1343 37.0852),6.910998344421387,III,False
925,2022-07-29,South Korea,Cheongsapo wind farm,,"해기해상풍력, 해운대 해상풍력발전단지",,40.0,offshore mount unknown,pre-construction,2024.0,,,,Macquarie Green Investment Group (GIG); Korea Southern Power CO LTD,한국남부발전(주),35.1059,129.2464,approximate,Busan,,,,Eastern Asia,Asia,L900913,G901045,,,https://gem.wiki/Cheongsapo_wind_farm,POINT (129.2464 35.1059),7.638766765594482,II,False
929,2022-07-29,South Korea,Chilsan Offshore wind farm,,"칠산해상풍력, 영광 칠산해상풍력",,152.0,offshore mount unknown,pre-construction,,,CW UNR CO LTD,씨더블유엔알이(주),Daehan Green Power CORP,대한그린에너지,35.3597,126.245,approximate,Nakwol-myeon,Yeonggwang-gun,,South Jeolla Province,Eastern Asia,Asia,L900745,G900853,,,https://gem.wiki/Chilsan_Offshore_wind_farm,POINT (126.245 35.3597),6.924088478088379,III,False
931,2022-07-29,South Korea,Dadaepo Offshore Wind Power,,다대포해상풍력발전,,96.0,offshore mount unknown,pre-construction,2025.0,,,,,,35.008,128.9953,approximate,Dadae-dong,Saha-gu,Busan,,Eastern Asia,Asia,L916789,G920849,,,https://gem.wiki/Dadaepo_Offshore_Wind_Power,POINT (128.9953 35.008),7.898028373718262,II,False
932,2022-07-29,South Korea,Dadaepo wind farm,,,KETEP Wind Farm,96.0,offshore mount unknown,pre-construction,2024.0,,,,Corio Generation,,35.1368,129.1608,approximate,Donghae,,Busan,,Eastern Asia,Asia,L900891,G901019,,,https://gem.wiki/Dadaepo_wind_farm,POINT (129.1608 35.1368),7.18337869644165,III,False
933,2022-07-29,South Korea,Dado 1 offshore wind farm,,"다도1해상풍력, 여수 다도1 해상풍력발전소",Teado 1 Offshore Wind Power,304.0,offshore mount unknown,pre-construction,,,,,,,34.1744,127.2505,approximate,Samsan-myeon,,,South Jeolla Province,Eastern Asia,Asia,L916790,G920850,,,https://gem.wiki/Dado_1_offshore_wind_farm,POINT (127.2505 34.1744),7.870178699493408,II,False
934,2022-07-29,South Korea,Dado 3 offshore wind farm,,여수 다도3 해상풍력발전소,Yeosu Dado 3 Offshore Wind Power Plant,640.0,offshore mount unknown,pre-construction,,,,,,,34.1744,127.2505,approximate,Samsan-myeon,,,South Jeolla Province,Eastern Asia,Asia,L916791,G920851,,,https://gem.wiki/Dado_3_offshore_wind_farm,POINT (127.2505 34.1744),7.870178699493408,II,False
936,2022-07-29,South Korea,Donghae 1 wind farm,,동해1부유식해상풍력,"Equinor East Sea Gas Wind Farm, East Sea 1 Floating Offshore Wind Power Project",200.0,offshore floating,pre-construction,2024.0,,,,Equinor ASA [33.4%]; Korea National Oil CORP [33.3%]; Korea East-West Power CO LTD [33.3%],석유공사; 에퀴노르; 동서발전,35.4668,130.2843,approximate,Ulsan City,,,,Eastern Asia,Asia,L900910,G901040,,,https://gem.wiki/Donghae_1_wind_farm,POINT (130.2843 35.4668),7.868481636047363,II,False
937,2022-07-29,South Korea,Donghae Gray Whale wind farm,1,"귀신고래 해상풍력 1,2,3호기에, 귀신고래1부유식해상풍력","Ghost Whale Floating Offshore Wind Power, Ulsan Offshore Wind",504.0,offshore floating,pre-construction,2025.0,,,,Macquarie Green Investment Group (GIG); Total Energies SE,麥格理綠投資集團 (GIG); 토탈에너지스,35.2193,129.9978,approximate,Ulsan Port,,,,Eastern Asia,Asia,L900912,G901042,,,https://gem.wiki/Donghae_Gray_Whale_wind_farm,POINT (129.9978 35.2193),7.726837158203125,II,False
938,2022-07-29,South Korea,Donghae Gray Whale wind farm,2,"귀신고래 해상풍력 1,2,3호기에, 귀신고래2부유식해상풍력","Ghost Whale Floating Offshore Wind Power, Ulsan Offshore Wind",504.0,offshore floating,pre-construction,2025.0,,,,Macquarie Green Investment Group (GIG); Total Energies SE,麥格理綠投資集團 (GIG); 토탈에너지스,35.2193,129.9978,approximate,Ulsan Port,,,,Eastern Asia,Asia,L900912,G901043,,,https://gem.wiki/Donghae_Gray_Whale_wind_farm,POINT (129.9978 35.2193),7.726837158203125,II,False
939,2022-07-29,South Korea,Donghae Gray Whale wind farm,3,"귀신고래 해상풍력 1,2,3호기에, 귀신고래3부유식해상풍력","Ghost Whale Floating Offshore Wind Power, Ulsan Offshore Wind",504.0,offshore floating,pre-construction,2025.0,,,,Macquarie Green Investment Group (GIG); Total Energies SE,麥格理綠投資集團 (GIG); 토탈에너지스,35.2193,129.9978,approximate,Ulsan Port,,,,Eastern Asia,Asia,L900912,G901044,,,https://gem.wiki/Donghae_Gray_Whale_wind_farm,POINT (129.9978 35.2193),7.726837158203125,II,False
940,2022-07-29,South Korea,Donghae KF wind farm,1,한국부유식해상풍력,"KFWIND-A, Korea Floating Offshore wind farm",290.0,offshore floating,pre-construction,,,,,OW Ocean Winds; Aker Offshore Wind; Kumyang Industrial Development CO LTD,,35.1609,130.1695,approximate,Ulsan City,,,,Eastern Asia,Asia,L900987,G901132,,,https://gem.wiki/Donghae_KF_wind_farm,POINT (130.1695 35.1609),7.735506534576416,II,False
941,2022-07-29,South Korea,Donghae KF wind farm,2,한국부유식해상풍력,"KFWIND-B, Korea Floating Offshore wind farm",290.0,offshore floating,pre-construction,,,,,OW Ocean Winds; Aker Offshore Wind; Kumyang Industrial Development CO LTD,,35.1609,130.1695,approximate,Ulsan City,,,,Eastern Asia,Asia,L900987,G901133,,,https://gem.wiki/Donghae_KF_wind_farm,POINT (130.1695 35.1609),7.735506534576416,II,False
942,2022-07-29,South Korea,Donghae KF wind farm,3,한국부유식해상풍력,"KFWIND-EBP, Korea Floating Offshore wind farm",290.0,offshore floating,pre-construction,,,,,OW Ocean Winds; Aker Offshore Wind; Kumyang Industrial Development CO LTD,,35.1609,130.1695,approximate,Ulsan City,,,,Eastern Asia,Asia,L900987,G901134,,,https://gem.wiki/Donghae_KF_wind_farm,POINT (130.1695 35.1609),7.735506534576416,II,False
943,2022-07-29,South Korea,Donghae MOTIE wind farm,1,,,200.0,offshore floating,pre-construction,2025.0,,,,"South Korean Ministry of Trade, Industry and Energy (MOTIE); Ulsan Metropolitan City; Ulsan Technopark; UOU Consortium",,35.4294,130.0828,approximate,Ulsan City,,,,Eastern Asia,Asia,L900955,G901094,,,https://gem.wiki/Donghae_MOTIE_wind_farm,POINT (130.0828 35.4294),7.8746137619018555,II,False
944,2022-07-29,South Korea,Donghae MOTIE wind farm,2,,,500.0,offshore floating,shelved,,,,,"South Korean Ministry of Trade, Industry and Energy (MOTIE); Ulsan Metropolitan City; Ulsan Technopark; UOU Consortium",,35.4294,130.0828,approximate,Ulsan City,,,,Eastern Asia,Asia,L900955,G901095,,,https://gem.wiki/Donghae_MOTIE_wind_farm,POINT (130.0828 35.4294),7.8746137619018555,II,False
945,2022-07-29,South Korea,Donghae MOTIE wind farm,3,,,1000.0,offshore mount unknown,shelved,,,,,"South Korean Ministry of Trade, Industry and Energy (MOTIE); Ulsan Metropolitan City; Ulsan Technopark; UOU Consortium",,35.4294,130.0828,approximate,Ulsan City,,,,Eastern Asia,Asia,L900955,G901096,,,https://gem.wiki/Donghae_MOTIE_wind_farm,POINT (130.0828 35.4294),7.8746137619018555,II,False
946,2022-07-29,South Korea,Donghae Twinwind wind farm,,,Donghae – TwinWind – Phase 1,200.0,offshore floating,pre-construction,2026.0,,Donghae TwinWind,,Royal Dutch Shell PLC; CoensHexicon,로열 더치 쉘; 코엔스헥시콘,35.2551,130.0535,approximate,Ulsan City,,,,Eastern Asia,Asia,L900965,G901107,,,https://gem.wiki/Donghae_Twinwind_wind_farm,POINT (130.0535 35.2551),7.752118110656738,II,False
947,2022-07-29,South Korea,Donghae White Heron wind farm,1,,"Donghae - White Heron - East I Floating wind farm, Ulsan Haeul Offshore wind farm phase I",500.0,offshore floating,pre-construction,2025.0,,,,SK Engineering & Construction CO LTD (SK E&C); Copenhagen Infrastructure Partners (CIP),,35.3358,130.1771,approximate,Ulsan City,,,,Eastern Asia,Asia,L900971,G901114,,,https://gem.wiki/Donghae_White_Heron_wind_farm,POINT (130.1771 35.3358),7.822288990020752,II,False
948,2022-07-29,South Korea,Donghae White Heron wind farm,2,,"Donghae - White Heron - East II Floating wind farm, Ulsan Haeul Offshore wind farm phase II",520.0,offshore floating,pre-construction,2026.0,,,,SK Engineering & Construction CO LTD (SK E&C); Copenhagen Infrastructure Partners (CIP),,35.3358,130.1771,approximate,Ulsan City,,,,Eastern Asia,Asia,L900971,G901115,,,https://gem.wiki/Donghae_White_Heron_wind_farm,POINT (130.1771 35.3358),7.822288990020752,II,False
949,2022-07-29,South Korea,Donghae White Heron wind farm,3,,"Donghae - White Heron - East III Floating wind farm, Ulsan Haeul Offshore wind farm phase III",500.0,offshore floating,pre-construction,2027.0,,,,SK Engineering & Construction CO LTD (SK E&C); Copenhagen Infrastructure Partners (CIP),,35.3358,130.1771,approximate,Ulsan City,,,,Eastern Asia,Asia,L900971,G901116,,,https://gem.wiki/Donghae_White_Heron_wind_farm,POINT (130.1771 35.3358),7.822288990020752,II,False
950,2022-07-29,South Korea,East Coast Wind Belt Offshore wind farm,,,East Coast Wind Belt - EWP Offshore Wind Farm,600.0,offshore mount unknown,shelved,,,,,Korea East-West Power CO LTD,,35.8231,129.5861,approximate,,,,,Eastern Asia,Asia,L900937,G901072,,,https://gem.wiki/East_Coast_Wind_Belt_Offshore_wind_farm,POINT (129.5861 35.8231),7.893922328948975,II,False
951,2022-07-29,South Korea,Eouido wind farm,,"어의, 천사 어의 해상풍력","Cheonsa Eoui Offshore Wind Farm, Yeouido, Eouiui, Angel, Shinan",99.0,offshore hard mount,pre-construction,,,,,Eouiui,,35.1443,126.2265,approximate,Jido-eup,Sinan-gun,,South Jeolla Province,Eastern Asia,Asia,L900962,G901104,,,https://gem.wiki/Eouido_wind_farm,POINT (126.2265 35.1443),6.965815544128418,III,False
952,2022-07-29,South Korea,Firefly wind farm,,"반딧불부유식해상풍력, 울산 반딧불 부유식 해상풍력 발전소",Ulsan Firefly Floating Offshore Wind Power Plant,810.0,offshore floating,pre-construction,,,Equinor ASA,에퀴노르,Equinor ASA,에퀴노르,35.4006,129.9967,exact,,,,,Eastern Asia,Asia,L900765,G900876,,,https://gem.wiki/Firefly_wind_farm,POINT (129.9967 35.4006),7.861917495727539,II,False
953,2022-07-29,South Korea,G8 offshore wind farm,1,,Holim,500.0,offshore floating,announced,2026.0,,,,G8 Subsea PTE LTD; Holim Technology INC,,34.0422,125.6067,approximate,,,,,Eastern Asia,Asia,L916792,G920852,,,https://gem.wiki/G8_offshore_wind_farm,POINT (125.6067 34.0422),8.000349044799805,II,False
954,2022-07-29,South Korea,G8 offshore wind farm,2,,Holim,500.0,offshore floating,announced,2026.0,,,,G8 Subsea PTE LTD; Holim Technology INC,,34.0422,125.6067,approximate,,,,,Eastern Asia,Asia,L916792,G920853,,,https://gem.wiki/G8_offshore_wind_farm,POINT (125.6067 34.0422),8.000349044799805,II,False
955,2022-07-29,South Korea,G8 offshore wind farm,3,,Holim,500.0,offshore floating,announced,2026.0,,,,G8 Subsea PTE LTD; Holim Technology INC,,34.0422,125.6067,approximate,,,,,Eastern Asia,Asia,L916792,G920854,,,https://gem.wiki/G8_offshore_wind_farm,POINT (125.6067 34.0422),8.000349044799805,II,False
968,2022-07-29,South Korea,Geomundo Offshore Wind project,,,,500.0,offshore mount unknown,pre-construction,,,,,Total Energies SE; Corio Generation,,34.6282,127.9353,approximate,Yeosu,,,South Jeolla Province,Eastern Asia,Asia,L916799,G920861,,,https://gem.wiki/Geomundo_Offshore_Wind_project,POINT (127.9353 34.6282),7.350157260894775,III,False
970,2022-07-29,South Korea,Gijang Offshore wind farm,,,,200.0,offshore hard mount,pre-construction,2027.0,,,,Corio Generation,,35.2772,129.2685,approximate,,Gijang-gun,Busan,,Eastern Asia,Asia,L916801,G920863,,,https://gem.wiki/Gijang_Offshore_wind_farm,POINT (129.2685 35.2772),7.026860237121582,III,False
972,2022-07-29,South Korea,Go-Ri wind farm,,,,300.0,offshore mount unknown,cancelled,,,,,Korea Hydro & Nuclear Power (KHNP) CO LTD,,35.316,129.312,approximate,Jangan-eup,Gijang-gun,Busan,,Eastern Asia,Asia,L900938,G901073,,,https://gem.wiki/Go-Ri_wind_farm,POINT (129.312 35.316),7.0744452476501465,III,False
974,2022-07-29,South Korea,Goheung Sisan Offshore Wind Power Plant,,고흥 시산 해상풍력 발전소,,352.0,offshore mount unknown,pre-construction,2029.0,,,,,,34.37,127.3194,approximate,Doyang-eup,Goheung-gun,,South Jeolla Province,Eastern Asia,Asia,L916803,G920865,,,https://gem.wiki/Goheung_Sisan_Offshore_Wind_Power_Plant,POINT (127.3194 34.37),7.6084160804748535,II,False
980,2022-07-29,South Korea,Gullupdo Offshore wind farm,,,,234.0,offshore mount unknown,pre-construction,,,,,,,37.2216,125.971,approximate,Incheon,,,,Eastern Asia,Asia,L916808,G920870,,,https://gem.wiki/Gullupdo_Offshore_wind_farm,POINT (125.971 37.2216),6.979839324951172,III,False
981,2022-07-29,South Korea,Gullupdo Offshore Wind Power,,굴업도해상풍력,,234.0,offshore mount unknown,pre-construction,2025.0,,,,,,37.2127,126.0399,approximate,Deokjeok-myeon,Ongjin-gun,Incheon,,Eastern Asia,Asia,L916809,G920871,,,https://gem.wiki/Gullupdo_Offshore_Wind_Power,POINT (126.0399 37.2127),6.952594757080078,III,False
982,2022-07-29,South Korea,Gunghang Offshore wind farm,,궁항해상풍력,,240.0,offshore mount unknown,pre-construction,,,,,,,34.6285,126.2663,approximate,Mugo-ri,Maenam-gun,,South Jeolla Province,Eastern Asia,Asia,L901441,G901696,,,https://gem.wiki/Gunghang_Offshore_wind_farm,POINT (126.2663 34.6285),7.190627098083496,III,False
983,2022-07-29,South Korea,Gunghang Offshore Wind Power,,궁항해상풍력발전,,240.0,offshore mount unknown,pre-construction,2027.0,,,,,,34.5955,126.2139,approximate,Munnae-myeon,Haenam-gun,,South Jeolla Province,Eastern Asia,Asia,L916810,G920872,,,https://gem.wiki/Gunghang_Offshore_Wind_Power,POINT (126.2139 34.5955),7.3762664794921875,III,False
984,2022-07-29,South Korea,Gunsan wind farm,2,,,1000.0,offshore mount unknown,pre-construction,,,Jeonbuk Technopark,,Jeonbuk Technopark,,35.923,126.426,approximate,Gunsan-si,,,North Jeolla Province,Eastern Asia,Asia,L900927,G901060,,,https://gem.wiki/Gunsan_wind_farm,POINT (126.426 35.923),6.705899238586426,III,False
985,2022-07-29,South Korea,Gunsan wind farm,1 (Demonstration),,"Jeonbuk Techno Wind Power Plant Generation Complex, Gunsan Maldo",110.0,offshore mount unknown,pre-construction,,,Jeonbuk Technopark,,Jeonbuk Technopark [100%],,36.053,126.542,approximate,Gunsan-si,,,North Jeolla Province,Eastern Asia,Asia,L900927,G901061,,,https://gem.wiki/Gunsan_wind_farm,POINT (126.542 36.053),6.601153373718262,III,False
987,2022-07-29,South Korea,Gwangpyeuong Offshore Wind Power,,"광평해상풍력, 여수 광평 해상풍력 발전사업",Yeosu Gwangpyeong offshore wind power generation,809.0,offshore mount unknown,pre-construction,,,,,Samhae Development,삼해개발,34.1523,127.1874,approximate,Samsan-myeon,,,South Jeolla Province,Eastern Asia,Asia,L916812,G920874,,,https://gem.wiki/Gwangpyeuong_Offshore_Wind_Power,POINT (127.1874 34.1523),7.876440048217773,II,False
988,2021-08-15,South Korea,GwiDeok wind farm,,,,100.0,offshore hard mount,cancelled,,,,,Wind Minds Korea,,33.5432,126.4289,approximate,Jeju-si,,,Jeju-do,Eastern Asia,Asia,L900986,G901131,,,https://gem.wiki/GwiDeok_wind_farm,POINT (126.4289 33.5432),6.290382385253906,III,False
990,2022-07-29,South Korea,Gyeongbuk wind farm,,,Gyeongbuk Demonstration Complex Offshore Wind Farm,200.0,offshore mount unknown,pre-construction,,,,,Gyeongbuk Technopark; Gyeonbuk Province; Korea Hydro & Nuclear Power (KHNP) CO LTD; Korea Electric Power CORP (KEPCO); Korea Institute of Energy Research,,36.421,129.442,approximate,,Yeongdeok-gun,,North Gyeongsang Province,Eastern Asia,Asia,L900917,G901050,,,https://gem.wiki/Gyeongbuk_wind_farm,POINT (129.442 36.421),7.076789855957031,III,False
991,2022-07-29,South Korea,Gyeongju Floating Offshore Wind Complex,1,경북부유식 해상풍력,Gyeongju Floating Offshore Wind Power Generation Complex - phase 1,500.0,offshore floating,shelved,,,,,Macquarie Group,,35.7913,129.8526,approximate,Gyeongju-si,,,North Gyeongsang Province,Eastern Asia,Asia,L900954,G901092,,,https://gem.wiki/Gyeongju_Floating_Offshore_Wind_Complex,POINT (129.8526 35.7913),8.095396041870117,II,False
992,2022-07-29,South Korea,Gyeongju Floating Offshore Wind Complex,2,경북부유식 해상풍력,Gyeongju Floating Offshore Wind Power Generation Complex - phase 2,500.0,offshore floating,shelved,,,,,Macquarie Group,,35.7097,129.8526,approximate,Gyeongju-si,,,North Gyeongsang Province,Eastern Asia,Asia,L900954,G901093,,,https://gem.wiki/Gyeongju_Floating_Offshore_Wind_Complex,POINT (129.8526 35.7097),8.093737602233887,II,False
995,2022-07-29,South Korea,Haegi Cheongsapo Offshore Wind Power Project,,해기청사포해상풍력발전사업,,40.0,offshore mount unknown,pre-construction,2025.0,,,,,,35.161,129.1938,exact,,,,,Eastern Asia,Asia,L916813,G920875,,,https://gem.wiki/Haegi_Cheongsapo_Offshore_Wind_Power_Project,POINT (129.1938 35.161),7.2581682205200195,III,False
997,2022-07-29,South Korea,Haenam Gunghang Offshore Wind Power,,해남 궁항 해상풍력,,240.0,offshore mount unknown,pre-construction,,,,,Haesung Energy CO LTD,해성에너지,34.3072,126.3375,approximate,Haenam-eup,,,South Jeolla Province,Eastern Asia,Asia,L916815,G920877,,,https://gem.wiki/Haenam_Gunghang_Offshore_Wind_Power,POINT (126.3375 34.3072),7.806728839874268,II,False
998,2022-07-29,South Korea,Haenam Maewol Offshore wind farm,,,"Monthly Offshore Wind Farm, Maewol Offshore Wind Farm",96.0,offshore mount unknown,pre-construction,2023.0,,,,Maewol Offshore Wind Power CO LTD,,34.755,126.27,approximate,Mokpo-si,,,South Jeolla Province,Eastern Asia,Asia,L900920,G901053,,,https://gem.wiki/Haenam_Maewol_Offshore_wind_farm,POINT (126.27 34.755),7.197122573852539,III,False
1000,2022-07-29,South Korea,Haeuli Floating Offshore Wind Power,1,해울이1부유식해상풍력,Haeuli 1 Floating Offshore Wind Power,520.0,offshore floating,pre-construction,,,,,CIP/COP Korea,,35.2111,130.0091,approximate,Ulsan City,,,,Eastern Asia,Asia,L916817,G920879,,,https://gem.wiki/Haeuli_Floating_Offshore_Wind_Power,POINT (130.0091 35.2111),7.725162029266357,II,False
1001,2022-07-29,South Korea,Haeuli Floating Offshore Wind Power,2,해울이2부유식해상풍력,Haeuli 2 Floating Offshore Wind Power,520.0,offshore floating,pre-construction,,,,,CIP/COP Korea,,35.2111,130.0091,approximate,Ulsan City,,,,Eastern Asia,Asia,L916817,G920880,,,https://gem.wiki/Haeuli_Floating_Offshore_Wind_Power,POINT (130.0091 35.2111),7.725162029266357,II,False
1002,2022-07-29,South Korea,Haeuli Floating Offshore Wind Power,3,해울이3부유식해상풍력,Haeuli 3 Floating Offshore Wind Power,518.0,offshore floating,pre-construction,,,,,CIP/COP Korea,,35.2111,130.0091,approximate,Ulsan City,,,,Eastern Asia,Asia,L916817,G920881,,,https://gem.wiki/Haeuli_Floating_Offshore_Wind_Power,POINT (130.0091 35.2111),7.725162029266357,II,False
1003,2022-07-29,South Korea,Handong Pyongdae Offshore Wind Power Complex,,제주도 구좌읍 한동·평대리 해상,Jeju Handong and Pyeongdae offshore wind farm project,105.0,offshore mount unknown,pre-construction,2024.0,,,,Jeju Energy CORP,,33.5875,126.7931,approximate,Pyeongdae-ri,Gujwa-eup,,Jeju Province,Eastern Asia,Asia,L900853,G900970,,,https://gem.wiki/Handong_Pyongdae_Offshore_Wind_Power_Complex,POINT (126.7931 33.5875),7.269662857055664,III,False
1008,2022-07-29,South Korea,Incheon offshore wind farm,,,,1600.0,offshore mount unknown,announced,,,,,Korea Southern Power CO LTD; Korea Midland Power CO LTD (KOMIPO),,37.3603,126.1775,approximate,Incheon,,,,Eastern Asia,Asia,L916819,G920883,,,https://gem.wiki/Incheon_offshore_wind_farm,POINT (126.1775 37.3603),6.79343318939209,III,False
1009,2022-07-29,South Korea,Incheon Ongjin Offshore wind farm,,,,234.0,offshore mount unknown,pre-construction,,,,,C&I Leisure Industry CORP,,37.4776,126.1951,approximate,,,,,Eastern Asia,Asia,L901095,G901276,,,https://gem.wiki/Incheon_Ongjin_Offshore_wind_farm,POINT (126.1951 37.4776),6.76644229888916,III,False
1010,2022-07-29,South Korea,Incheon wind farm,,,,600.0,offshore hard mount,shelved,,,,,Community Owner - City of Incheon,,37.208,126.0496,approximate,Incheon,,,,Eastern Asia,Asia,L900894,G901022,,,https://gem.wiki/Incheon_wind_farm,POINT (126.0496 37.208),6.955620288848877,III,False
1011,2022-07-29,South Korea,Incheon-Orsted wind farm,,,,1600.0,offshore floating,pre-construction,2027.0,,,,Ørsted A/S,,37.1874,125.9077,approximate,Incheon,,,,Eastern Asia,Asia,L900989,G901136,,,https://gem.wiki/Incheon-Orsted_wind_farm,POINT (125.9077 37.1874),7.017208576202393,III,False
1014,2021-08-15,South Korea,Jeju Daejong wind farm,,,,104.0,offshore hard mount,cancelled,,,,,Korea Southern Power CO LTD; Samsung,,33.1858,126.5763,approximate,Seogwipo-si,,,Jeju-do,Eastern Asia,Asia,L900949,G901087,,,https://gem.wiki/Jeju_Daejong_wind_farm,POINT (126.5763 33.1858),5.6460280418396,III,False
1015,2022-07-29,South Korea,Jeju Demo wind farm,,,Jeju Demo Project,100.0,offshore mount unknown,announced,2028.0,,,,Jeju Energy CORP,,35.0962,129.1827,approximate,Busan,,,,Eastern Asia,Asia,L916821,G920885,,,https://gem.wiki/Jeju_Demo_wind_farm,POINT (129.1827 35.0962),7.689451694488525,II,False
1017,2022-07-29,South Korea,Jeju Hanlim wind farm,,,"Hallym Wind Farm, Hallym Offshore Wind Power Demonstration Offshore Wind Farm",100.0,offshore mount unknown,construction,2024.0,,Korea Midland Power CO LTD (KOMIPO),,Korea Midland Power CO LTD (KOMIPO); Korea Electric Power CORP (KEPCO); Daelim CORP; KEPCO Engineering & Construction Company INC; Hyundai Engineering & Construction CO LTD,,33.4454,126.2538,approximate,Hanlim-eup,,,Jeju Province,Eastern Asia,Asia,L900750,G900858,,,https://gem.wiki/Jeju_Hanlim_wind_farm,POINT (126.2538 33.4454),7.253975868225098,III,False
1022,2022-07-29,South Korea,Jeollanam-do Sinan Offshore Wind Power Plant,,전남신안 해상풍력 발전소,,300.0,offshore mount unknown,pre-construction,2025.0,,,,,,34.7333,125.7338,approximate,,Sinan-gun,,South Jeolla Province,Eastern Asia,Asia,L916824,G920888,,,https://gem.wiki/Jeollanam-do_Sinan_Offshore_Wind_Power_Plant,POINT (125.7338 34.7333),7.695390224456787,II,False
1023,2022-07-29,South Korea,Jeonbuk Gochang Offshore wind farm,,고창해상풍력발전소,Gochang - Dongchon Wind Power Offshore Wind Farm,69.0,offshore mount unknown,pre-construction,2024.0,,,,Dongchon Wind Power CO LTD,동촌풍력발전(주),35.4707,126.4238,approximate,Sangha-myeon,Gochang-gun,,North Jeolla Province,Eastern Asia,Asia,L901113,G901299,,,https://gem.wiki/Jeonbuk_Gochang_Offshore_wind_farm,POINT (126.4238 35.4707),6.566193580627441,III,False
1029,2022-07-29,South Korea,Jeonnam (SK E&C) wind farm,1,전남해상풍력1단계,"Jeonnam Marine I, SK E&S Shinan phase 1, Sinan Jaeundo, Shinan",99.0,offshore mount unknown,pre-construction,2024.0,,,,SK Engineering & Construction CO LTD (SK E&C); Copenhagen Infrastructure Partners (CIP),,34.9043,125.968,approximate,Jaeun-do,Sinan-gun,,South Jeolla Province,Eastern Asia,Asia,L900970,G901113,,,https://gem.wiki/Jeonnam_(SK_E&C)_wind_farm,POINT (125.968 34.9043),7.33469295501709,III,False
1030,2022-07-29,South Korea,Jeonnam (SK E&C) wind farm,2,전남해상풍력2단계,"Jeonnam Marine I, SK E&S Shinan phase 2, Sinan Jaeundo, Shinan",399.0,offshore mount unknown,pre-construction,,,,,SK Engineering & Construction CO LTD (SK E&C); Copenhagen Infrastructure Partners (CIP),,34.9043,125.968,approximate,Jaeun-do,Sinan-gun,,South Jeolla Province,Eastern Asia,Asia,L900970,G920893,,,https://gem.wiki/Jeonnam_(SK_E&C)_wind_farm,POINT (125.968 34.9043),7.33469295501709,III,False
1031,2022-07-29,South Korea,Jeonnam (SK E&C) wind farm,3,전남해상풍력3단계,"Jeonnam Marine I, SK E&S Shinan phase 3, Sinan Jaeundo, Shinan",399.0,offshore mount unknown,pre-construction,,,,,SK Engineering & Construction CO LTD (SK E&C); Copenhagen Infrastructure Partners (CIP),,34.9043,125.968,approximate,Jaeun-do,Sinan-gun,,South Jeolla Province,Eastern Asia,Asia,L900970,G920894,,,https://gem.wiki/Jeonnam_(SK_E&C)_wind_farm,POINT (125.968 34.9043),7.33469295501709,III,False
1032,2022-07-29,South Korea,Jindo Gasado Offshore wind farm,,진도가사도해상풍력,Jindo Gasado Offshore Wind Power,296.0,offshore mount unknown,pre-construction,,,,,,,34.4326,125.9565,approximate,Jindo-eup,,,South Jeolla Province,Eastern Asia,Asia,L916829,G920895,,,https://gem.wiki/Jindo_Gasado_Offshore_wind_farm,POINT (125.9565 34.4326),7.968098163604736,II,False
1033,2022-07-29,South Korea,Jindo wind farm,,,Jindo Floating wind farm,420.0,offshore floating,pre-construction,,,,,Total Energies SE [50%]; Macquarie Green Investment Group (GIG) [50%],,33.9622,126.2393,approximate,Jindo-eup,Jindo-gun,,South Jeolla Province,Eastern Asia,Asia,L900976,G901121,,,https://gem.wiki/Jindo_wind_farm,POINT (126.2393 33.9622),8.016610145568848,II,False
1034,2022-07-29,South Korea,Jwasari Offshore wind farm,,"좌사리해상풍력, 욕지 좌사리 해상풍력 발전소","Yokji Jwasari Offshore Wind Power Plant, Jwasarido - East Yokjido",224.0,offshore mount unknown,pre-construction,,,,,Hyundai Engineering & Construction CO LTD,현대건설,34.6556,127.81,approximate,Yok-ji-myeon,,,South Gyeongsang Province,Eastern Asia,Asia,L916830,G920896,,,https://gem.wiki/Jwasari_Offshore_wind_farm,POINT (127.81 34.6556),6.847318649291992,III,False
1036,2022-07-29,South Korea,Maenggoldo Offshore wind farm,1,,,300.0,offshore mount unknown,pre-construction,2026.0,,,,Total Energies SE; Corio Generation,,34.4343,125.8089,approximate,,,,Jindo Island,Eastern Asia,Asia,L916831,G920897,,,https://gem.wiki/Maenggoldo_Offshore_wind_farm,POINT (125.8089 34.4343),7.960750102996826,II,False
1037,2022-07-29,South Korea,Maenggoldo Offshore wind farm,2,,,300.0,offshore mount unknown,pre-construction,2026.0,,,,Total Energies SE; Corio Generation,,34.4343,125.8089,approximate,,,,Jindo Island,Eastern Asia,Asia,L916831,G920898,,,https://gem.wiki/Maenggoldo_Offshore_wind_farm,POINT (125.8089 34.4343),7.960750102996826,II,False
1038,2022-07-29,South Korea,Maewolhae Offshore wind farm,,매월해상풍력발전,Monthly offshore wind power generation,96.0,offshore mount unknown,pre-construction,2024.0,,,,,,34.7828,126.2315,approximate,Hwawon-myeon,Haenam-gun,,South Jeolla Province,Eastern Asia,Asia,L916832,G920899,,,https://gem.wiki/Maewolhae_Offshore_wind_farm,POINT (126.2315 34.7828),7.348078727722168,III,False
1039,2022-07-29,South Korea,Maritime Offshore wind farm,,,,540.0,offshore mount unknown,pre-construction,,,,,Cheongsapo Offshore Wind Power CO LTD; Korea Southern Power CO LTD,,35.2513,129.274,approximate,Ilgwang-myeong,Gijang-gun,Busan,,Eastern Asia,Asia,L900972,G901117,,,https://gem.wiki/Maritime_Offshore_wind_farm,POINT (129.274 35.2513),7.250290393829346,III,False
1041,2022-07-29,South Korea,Mundo Offshore Wind Power Complex,1,"문도 해상풍력 발전사업 (1단계 사업), 문도해상풍력, 거문도(문도) 해상풍력",Geomundo Offshore Wind Power Complex,504.0,offshore hard mount,pre-construction,2025.0,,,,Korea Midland Power CO LTD (KOMIPO); Korea Wind Power Industry,한국풍력산업; 중부발전,34.1116,127.5445,approximate,,,Geomundo,South Jeolla Province,Eastern Asia,Asia,L900942,G901077,,,https://gem.wiki/Mundo_Offshore_Wind_Power_Complex,POINT (127.5445 34.1116),7.991682529449463,II,False
1042,2022-07-29,South Korea,Mundo Offshore Wind Power Complex,2,"문도 해상풍력 발전사업 (2단계 사업), 문도해상풍력, 거문도(문도) 해상풍력",Geomundo Offshore Wind Power Complex,504.0,offshore hard mount,pre-construction,2025.0,,,,Korea Midland Power CO LTD (KOMIPO); Korea Wind Power Industry,한국풍력산업; 중부발전,34.0632,127.6305,approximate,,,Geomundo,South Jeolla Province,Eastern Asia,Asia,L900942,G901078,,,https://gem.wiki/Mundo_Offshore_Wind_Power_Complex,POINT (127.6305 34.0632),8.030160903930664,II,False
1043,2022-07-29,South Korea,Munmubaram 1 Floating Offshore wind farm,,"문무바람 1발전소, 문무바람1부유식해상풍력",Munmubaram 1 Floating Offshore Wind Power,420.0,offshore floating,pre-construction,2029.0,,,,Royal Dutch Shell PLC [80%]; CoensHexicon [20%],로열 더치 쉘; 코엔스헥시콘,35.212,130.0091,approximate,Ulsan City,,,,Eastern Asia,Asia,L916833,G920900,,,https://gem.wiki/Munmubaram_1_Floating_Offshore_wind_farm,POINT (130.0091 35.212),7.725162029266357,II,False
1044,2022-07-29,South Korea,Munmubaram 1 wind farm,1,문무바람 1발전소,"Munmubaram 1 Power Plant, MunmuBaram Ulsand Offshore wind farm, Munmu Baram, Ulsan Floating",420.0,offshore mount unknown,pre-construction,2025.0,,,,,,35.2538,130.1954,approximate,Ulsan Port,,,,Eastern Asia,Asia,L916834,G920901,,,https://gem.wiki/Munmubaram_1_wind_farm,POINT (130.1954 35.2538),7.763276100158691,II,False
1045,2022-07-29,South Korea,Munmubaram 2 wind farm,2,문무바람 2발전소,"Munmubaram 2 Power Plant, Munmu Baram, MunmuBaram Ulsand Offshore wind farm, Ulsan Floating",420.0,offshore mount unknown,pre-construction,2025.0,,,,,,35.2538,130.1954,approximate,Ulsan Port,,,,Eastern Asia,Asia,L916835,G920902,,,https://gem.wiki/Munmubaram_2_wind_farm,POINT (130.1954 35.2538),7.763276100158691,II,False
1046,2022-07-29,South Korea,Munmubaram 3 wind farm,3,문무바람 3발전소,"Munmubaram 3 Power Plant, Munmu Baram, MunmuBaram Ulsand Offshore wind farm, Ulsan Floating",420.0,offshore mount unknown,pre-construction,2025.0,,,,,,35.2538,130.1954,approximate,Ulsan Port,,,,Eastern Asia,Asia,L916836,G920903,,,https://gem.wiki/Munmubaram_3_wind_farm,POINT (130.1954 35.2538),7.763276100158691,II,False
1047,2022-07-29,South Korea,MunmuBaram offshore floating wind farm,,,,1300.0,offshore floating,pre-construction,,,MunmuBaram CO LTD,,Royal Dutch Shell PLC; CoensHexicon,로열 더치 쉘; 코엔스헥시콘,35.2458,130.0961,approximate,Ulsan City,,,,Eastern Asia,Asia,L916837,G920904,,,https://gem.wiki/MunmuBaram_offshore_floating_wind_farm,POINT (130.0961 35.2458),7.7452192306518555,II,False
1052,2022-07-29,South Korea,Northland Power Dado Ocean projects Offshore wind farm,,다도오션 프로젝트를,"Northland Power (Dado Ocean), Chodo-ri, Sonjuk-ri, Northland Power (Dado Ocean) projects Offshore Wind Farm",1000.0,offshore mount unknown,pre-construction,,,,,Northland Power INC,,34.2134,127.3387,approximate,,,,,Eastern Asia,Asia,L916842,G920909,,,https://gem.wiki/Northland_Power_Dado_Ocean_projects_Offshore_wind_farm,POINT (127.3387 34.2134),7.879384994506836,II,False
1055,2022-07-29,South Korea,Ongjin offshore wind farm,,,,800.0,offshore mount unknown,announced,,,,,Korea Southern Power CO LTD; Ørsted A/S,,37.3269,124.6275,approximate,,Ongjin-gun,Incheon,,Eastern Asia,Asia,L916844,G920911,,,https://gem.wiki/Ongjin_offshore_wind_farm,POINT (124.6275 37.3269),7.324345588684082,III,False
1058,2022-07-29,South Korea,Port Hamilton wind farm,,,Geomundo,420.0,offshore floating,shelved,,,,,Total Energies SE [50%]; Macquarie Green Investment Group (GIG) [50%],,33.9559,127.2946,approximate,Samsan-myeon,,,South Jeolla Province,Eastern Asia,Asia,L900975,G901120,,,https://gem.wiki/Port_Hamilton_wind_farm,POINT (127.2946 33.9559),8.001338005065918,II,False
1064,2021-08-15,South Korea,Pyeoson Offshore wind farm,,,,135.0,offshore hard mount,cancelled,,,,,Jeju Energy CORP,,33.2813,126.864,approximate,Seogwipo-si,,,Jeju-do,Eastern Asia,Asia,L900925,G901058,,,https://gem.wiki/Pyeoson_Offshore_wind_farm,POINT (126.864 33.2813),7.625728130340576,II,False
1065,2022-07-29,South Korea,Saemangeum 1 Gw wind farm,1,,Saemangeum 1 GW - phase 1 Offshore Wind Farm,500.0,offshore mount unknown,pre-construction,,,,,Saemangeum Development and Investment Agency (SDIA),,35.908,126.426,approximate,Gunsan-si,,,North Jeolla Province,Eastern Asia,Asia,L900966,G901108,,,https://gem.wiki/Saemangeum_1_Gw_wind_farm,POINT (126.426 35.908),6.708494186401367,III,False
1066,2022-07-29,South Korea,Saemangeum 1 Gw wind farm,2,,Saemangeum 1 GW - phase 2 Offshore Wind Farm,400.0,offshore mount unknown,pre-construction,,,,,Saemangeum Development and Investment Agency (SDIA),,35.908,126.426,approximate,Gunsan-si,,,North Jeolla Province,Eastern Asia,Asia,L900966,G901109,,,https://gem.wiki/Saemangeum_1_Gw_wind_farm,POINT (126.426 35.908),6.708494186401367,III,False
1067,2022-07-29,South Korea,Saemangeum Offshore wind farm,,,,99.0,offshore hard mount,pre-construction,,,Global Offfshore Development,,Saemangeum Offshore Wind Power CO LTD,,35.8304,126.5263,approximate,Gunsan-si,,,North Jeolla Province,Eastern Asia,Asia,L901007,G901162,,,https://gem.wiki/Saemangeum_Offshore_wind_farm,POINT (126.5263 35.8304),6.565882205963135,III,False
1068,2022-07-29,South Korea,Saemangeum Offshore Wind Power Plant,,새만금해상풍력발전소,,99.0,offshore mount unknown,pre-construction,2024.0,,,,,,35.8936,126.5556,approximate,Gunsan-si,,,North Jeolla Province,Eastern Asia,Asia,L916851,G920918,,,https://gem.wiki/Saemangeum_Offshore_Wind_Power_Plant,POINT (126.5556 35.8936),6.432989597320557,III,False
1078,2021-08-15,South Korea,Seamangeum Wind Farm Model Complex,,,,40.0,offshore hard mount,cancelled,,,,,,,35.945,126.5997,approximate,Gunsan-si,,,Jeollabuk-do,Eastern Asia,Asia,L900964,G901106,,,https://gem.wiki/Seamangeum_Wind_Farm_Model_Complex,POINT (126.5997 35.945),6.062009334564209,III,False
1080,2022-07-29,South Korea,Shinan Eoul Offshore wind farm,,,,99.0,offshore mount unknown,pre-construction,,,,,Shinan Eoul Wind Power,,34.915,125.8758,approximate,,,,,Eastern Asia,Asia,L901271,G901482,,,https://gem.wiki/Shinan_Eoul_Offshore_wind_farm,POINT (125.8758 34.915),7.4737420082092285,III,False
1081,2022-07-29,South Korea,Sinan (KEPCO) Wind Farm,1,,,1500.0,offshore mount unknown,pre-construction,,,,,Korea Electric Power CORP (KEPCO); Jeonnam Development CORP,,34.963,126.002,approximate,Jaeun-myeon,Sinan-gun,,South Jeolla Province,Eastern Asia,Asia,L900931,G901065,,,https://gem.wiki/Sinan_(KEPCO)_Wind_Farm,POINT (126.002 34.963),7.311919212341309,III,False
1082,2022-07-29,South Korea,Sinan (KOEN) wind farm,1,"신안해상풍력, 규모의 전남신안해상풍력",,300.0,offshore mount unknown,pre-construction,2030.0,,OWC,,Korea South-East Power CO LTD (KOEN); Posco Energy,한국남동발전은 대한민국; 포스코에너지,34.7908,125.712,approximate,,Sinan-gun,,South Jeolla Province,Eastern Asia,Asia,L900995,G901147,,,https://gem.wiki/Sinan_(KOEN)_wind_farm,POINT (125.712 34.7908),7.656731605529785,II,False
1083,2022-07-29,South Korea,Sinan Daegwang wind farm,,대광해상풍력,Shinan Daewang wind farm,400.0,offshore mount unknown,pre-construction,,,,,,,35.0388,126.0635,approximate,,Sinan-gun,,South Jeolla Province,Eastern Asia,Asia,L901273,G901484,,,https://gem.wiki/Sinan_Daegwang_wind_farm,POINT (126.0635 35.0388),7.136552333831787,III,False
1084,2022-07-29,South Korea,Sinan Jeungdo wind farm,,신안증도,,33.0,offshore mount unknown,pre-construction,,,,,Jeonnam Development CORP,전남개발공사,34.8813,125.8381,approximate,Jaeun-myeon,Sinan-gun,,South Jeolla Province,Eastern Asia,Asia,L900928,G901062,,,https://gem.wiki/Sinan_Jeungdo_wind_farm,POINT (125.8381 34.8813),7.517106533050537,II,False
1085,2022-07-29,South Korea,Sinan Offshore wind complex,,,,8200.0,offshore mount unknown,announced,2030.0,,,,,,34.9449,125.3681,approximate,,Sinan-gun,,South Jeolla Province,Eastern Asia,Asia,L916859,G920926,,,https://gem.wiki/Sinan_Offshore_wind_complex,POINT (125.3681 34.9449),7.582322120666504,II,False
1086,2022-07-29,South Korea,Sinan Wui wind farm,,신안우이해상풍력,"Sinanwui Offshore Wind Power, Shinan Ui - Hanwha E&C Offshore Wind Farm",396.0,offshore mount unknown,pre-construction,,,,,Hanwha E&C; SK D&D CO LTD; Korea South-East Power CO LTD (KOEN),한화건설; 남동발전,34.5155,125.8706,approximate,Docho-myeon,Sinan-gun,,South Jeolla Province,Eastern Asia,Asia,L900922,G901055,,,https://gem.wiki/Sinan_Wui_wind_farm,POINT (125.8706 34.5155),7.896239757537842,II,False
1087,2022-07-29,South Korea,Sinaneo offshore wind power plant,,신안어의 해상풍력발전소,,99.0,offshore mount unknown,pre-construction,2023.0,,,,,,35.124,126.1608,approximate,Jido-eup,Sinan-gun,,South Jeolla Province,Eastern Asia,Asia,L916860,G920927,,,https://gem.wiki/Sinaneo_offshore_wind_power_plant,POINT (126.1608 35.124),6.98090934753418,III,False
1089,2022-07-29,South Korea,Southeast Coast Float Offshore wind farm,,울산에서,Ulsan offshore wind farm,136.0,offshore floating,pre-construction,,,,,SK Eco Plant CO LTD,SK에코플랜트,35.5377,129.5115,approximate,Ulsan City,,,Yeongnam Region,Eastern Asia,Asia,L916862,G920929,,,https://gem.wiki/Southeast_Coast_Float_Offshore_wind_farm,POINT (129.5115 35.5377),8.17319107055664,II,False
1090,2022-07-29,South Korea,Southwest Offshore wind farm,2,,Seonam Offshore Wind Farm,400.0,offshore hard mount,pre-construction,2027.0,,OWC,,Korea Offshore Wind Power (KOWP); Korea Electric Power CORP (KEPCO) [25%]; other,,35.5382,126.2232,approximate,,Gochang-gun,,North Jeolla Province,Eastern Asia,Asia,L900748,G901079,,,https://gem.wiki/Southwest_Offshore_wind_farm,POINT (126.2232 35.5382),6.890705585479736,III,False
1091,2022-07-29,South Korea,Southwest Offshore wind farm,3,,Southwest Offshore - phase 3 Offshore Wind Farm,2000.0,offshore mount unknown,pre-construction,2027.0,,,,Korea East-West Power CO LTD; Korea Electric Power CORP (KEPCO); Korea Hydro & Nuclear Power (KHNP) CO LTD; Korea South-East Power CO LTD (KOEN); Korea Midland Power CO LTD (KOMIPO); Korea Southern Power CO LTD; Korea Western Power CO LTD,,35.5909,126.2232,approximate,,Gochang-gun,,North Jeolla Province,Eastern Asia,Asia,L900748,G901080,,,https://gem.wiki/Southwest_Offshore_wind_farm,POINT (126.2232 35.5909),6.877363204956055,III,False
1092,2021-08-15,South Korea,Southwest Offshore wind farm,1 (Demonstration),,Southwest Offshore wind farm,60.0,offshore hard mount,operating,2019.0,,Doosan CORP,,Korea Offshore Wind Power,,35.5382,126.2232,approximate,,Gochang-gun,,Jeollabuk-do,Eastern Asia,Asia,L900748,G900856,,,https://gem.wiki/Southwest_Offshore_wind_farm,POINT (126.2232 35.5382),6.890705585479736,III,False
1093,2022-07-29,South Korea,Taean wind farm,,태안해상풍력,Taean Offshore Wind,504.0,offshore hard mount,pre-construction,2026.0,,,,Korea South-East Power CO LTD (KOEN); Korea Western Power CO LTD,한국남동발전은 대한민국; 한국서부발전,36.7864,125.7402,approximate,,Taean-gun,,South Chungcheong Province,Eastern Asia,Asia,L900855,G900973,,,https://gem.wiki/Taean_wind_farm,POINT (125.7402 36.7864),7.038785457611084,III,False
1099,2021-08-15,South Korea,Tamra Offshore wind farm,,,Jeju Tamra Offshore Wind Farm,30.0,offshore hard mount,operating,2017.0,,Korea South-East Power CO LTD,,,,33.3742,126.165,approximate,Hangyeong-myeon,,,Jeju-do,Eastern Asia,Asia,L900860,G900979,WRI: WRI1029938,,https://gem.wiki/Tamra_Offshore_wind_farm,POINT (126.165 33.3742),7.769530296325684,II,False
1102,2022-07-29,South Korea,Ulsan City Offshore floating wind farm,,,,9000.0,offshore floating,announced,2030.0,,,,,,35.5174,129.8116,approximate,Ulsan City,,,,Eastern Asia,Asia,L916867,G920934,,,https://gem.wiki/Ulsan_City_Offshore_floating_wind_farm,POINT (129.8116 35.5174),7.9917731285095215,II,False
1103,2022-07-29,South Korea,Ulsan Firefly Floating Offshore Wind Power Plant,,울산 반딧불 부유식 해상풍력 발전소,,810.0,offshore mount unknown,pre-construction,,,Firefly Floating Offshore Wind CO LTD,파이어플라이플로팅오프쇼어윈드㈜,,,35.3888,130.0383,approximate,Ulsan Port,,,,Eastern Asia,Asia,L916868,G920935,,,https://gem.wiki/Ulsan_Firefly_Floating_Offshore_Wind_Power_Plant,POINT (130.0383 35.3888),7.852856159210205,II,False
1104,2022-07-29,South Korea,Ulsan floating Offshore wind farm,,,,1500.0,offshore floating,announced,,,,,RWE AG; Ulsan Metropolitan City,,35.5017,129.6139,approximate,Ulsan City,,,,Eastern Asia,Asia,L916869,G920936,,,https://gem.wiki/Ulsan_floating_Offshore_wind_farm,POINT (129.6139 35.5017),7.973780155181885,II,False
1105,2022-07-29,South Korea,Ulsan Offshore Floating wind farm,1,,,870.0,offshore floating,pre-construction,,,,,Korea Floating Wind (FK Wind); Korea East-West Power CO LTD,,35.3738,130.1163,approximate,Ulsan City,,,,Eastern Asia,Asia,L916870,G920937,,,https://gem.wiki/Ulsan_Offshore_Floating_wind_farm,POINT (130.1163 35.3738),7.843602657318115,II,False
1106,2022-07-29,South Korea,Ulsan Offshore Floating wind farm,2,,,450.0,offshore floating,pre-construction,,,,,Korea Floating Wind (FK Wind); Korea East-West Power CO LTD,,35.3738,130.1163,approximate,Ulsan City,,,,Eastern Asia,Asia,L916870,G920938,,,https://gem.wiki/Ulsan_Offshore_Floating_wind_farm,POINT (130.1163 35.3738),7.843602657318115,II,False
1107,2022-07-29,South Korea,Ulsan Port wind farm,,,Ulsan Port Offshore wind farm,100.0,offshore floating,shelved,,,,,Korea East-West Power CO LTD,,35.4669,129.4149,approximate,Ulsan City,,,,Eastern Asia,Asia,L900936,G901071,,,https://gem.wiki/Ulsan_Port_wind_farm,POINT (129.4149 35.4669),7.358440399169922,III,False
1108,2022-07-29,South Korea,Ulsan SK E&C wind farm,,,Samchuck Wind,136.0,offshore floating,pre-construction,2023.0,,,,SK Engineering & Construction CO LTD (SK E&C),,35.6341,129.4887,approximate,Ulsan City,,,,Eastern Asia,Asia,L900749,G900857,,,https://gem.wiki/Ulsan_SK_E&C_wind_farm,POINT (129.4887 35.6341),7.956032752990723,II,False
1109,2022-07-29,South Korea,Uram Offshore wind farm,,,"Pungdo Offshore Wind Farm, Ansan Pungdo - KOWEPO & Uram Offshore Wind Farm",360.0,offshore mount unknown,shelved,,,,,Korea Western Power CO LTD; Uram Construction Company,,37.3416,126.2529,approximate,Ansan-si,,,Gyeonggi-do Province,Eastern Asia,Asia,L900951,G901089,,,https://gem.wiki/Uram_Offshore_wind_farm,POINT (126.2529 37.3416),6.807471752166748,III,False
1110,2022-07-29,South Korea,Wando Geumil Offshore Wind Power Plant,1,완도금일해상풍력(1단계) 발전소,,200.0,offshore mount unknown,pre-construction,2025.0,,,,,,34.2696,127.061,approximate,Geumil-eup,Wando-gun,,South Jeolla Province,Eastern Asia,Asia,L916871,G920939,,,https://gem.wiki/Wando_Geumil_Offshore_Wind_Power_Plant,POINT (127.061 34.2696),7.609240531921387,II,False
1111,2022-07-29,South Korea,Wando Geumil Offshore Wind Power Plant,2,"완도금일해상풍력(2단계) 발전소, 완도 금일해상풍력2단계",,400.0,offshore mount unknown,pre-construction,2025.0,,,,,,34.2696,127.061,approximate,Geumil-eup,Wando-gun,,South Jeolla Province,Eastern Asia,Asia,L916871,G920940,,,https://gem.wiki/Wando_Geumil_Offshore_Wind_Power_Plant,POINT (127.061 34.2696),7.609240531921387,II,False
1112,2022-07-29,South Korea,Wando Island wind farm,,,Wando Island,149.0,offshore mount unknown,shelved,,,,,Northland Power INC,,34.3418,127.1524,approximate,Wando-eup,Wando-gun,,South Jeolla Province,Eastern Asia,Asia,L900958,G901099,,,https://gem.wiki/Wando_Island_wind_farm,POINT (127.1524 34.3418),7.621862888336182,II,False
1113,2022-07-29,South Korea,Wando KOEN wind farm,,"완도금일해상풍력, 완도금일해상풍력(1단계) 발전소, 완도 금일해상풍력","Wando-Geumil offshore wind farm project, Wando - Korea South-East Power Offshore Wind Farm, Wando-Geumil, Jeollanam-do Wando Geumil, Jeonnam Wando Geumil OWF project, Wando - Kosep",600.0,offshore mount unknown,pre-construction,2027.0,,Korea South-East Power CO LTD (KOEN),,Korea South-East Power CO LTD (KOEN); Community Owners - Wando County,,34.257,126.7081,approximate,Wando-eup,Wando-gun,,South Jeolla Province,Eastern Asia,Asia,L900944,G901082,,,https://gem.wiki/Wando_KOEN_wind_farm,POINT (126.7081 34.257),7.605177879333496,II,False
1114,2022-07-29,South Korea,Wando Kolon Global wind farm,,,Wando - Kolon Global - Jeonnam Development Corporation - Korea West Power Offshore Wind Farm,400.0,offshore mount unknown,pre-construction,,,,,Korea Western Power CO LTD; Kolon Global CORP,,34.2248,126.7206,approximate,Wando-eup,Wando-gun,,South Jeolla Province,Eastern Asia,Asia,L900929,G901063,,,https://gem.wiki/Wando_Kolon_Global_wind_farm,POINT (126.7206 34.2248),7.640454292297363,II,False
1115,2022-07-29,South Korea,Wandogeumil Offshore Wind Power Plant,1,,,200.0,offshore mount unknown,pre-construction,,,,,,,34.302,127.0803,approximate,Sadong-ri,Wando-gun,,South Jeolla Province,Eastern Asia,Asia,L916872,G920941,,,https://gem.wiki/Wandogeumil_Offshore_Wind_Power_Plant,POINT (127.0803 34.302),7.576010227203369,II,False
1116,2022-07-29,South Korea,Wandogeumil Offshore Wind Power Plant,2,,,400.0,offshore mount unknown,pre-construction,,,,,,,34.302,127.0803,approximate,Sadong-ri,Wando-gun,,South Jeolla Province,Eastern Asia,Asia,L916872,G920942,,,https://gem.wiki/Wandogeumil_Offshore_Wind_Power_Plant,POINT (127.0803 34.302),7.576010227203369,II,False
1117,2022-07-29,South Korea,Windway wind farm,,당진시 난지도 바다와 미래 풍력발전단지,"Nanjido Sea and Future Wind Power Farm, Chungnam Dangjin Wind Farm",210.0,offshore mount unknown,pre-construction,2025.0,,,,Windway Capital CORP,,37.0796,126.3288,approximate,Nanjido-ri,,,South Chungcheong Province,Eastern Asia,Asia,L900988,G901135,,,https://gem.wiki/Windway_wind_farm,POINT (126.3288 37.0796),6.811742782592773,III,False
1118,2021-08-15,South Korea,Woljeong-Haengwon wind farm,,,,125.0,offshore hard mount,cancelled,,,,,Jeju Energy CORP,,33.5861,126.8283,approximate,Jeju-si,,,Jeju-do,Eastern Asia,Asia,L900926,G901059,,,https://gem.wiki/Woljeong-Haengwon_wind_farm,POINT (126.8283 33.5861),7.469260215759277,III,False
1123,2022-07-29,South Korea,Yeomsan Offshore wind farm,,,,38.0,offshore mount unknown,pre-construction,,,,,DaeMyoung GEC,,35.1848,126.314,approximate,,,,,Eastern Asia,Asia,L901112,G901298,,,https://gem.wiki/Yeomsan_Offshore_wind_farm,POINT (126.314 35.1848),6.933823585510254,III,False
